{"g6JpZK84MjYwMDkwMDQ0NTkyMDihY6NHQlKhdqdVbmlmaWVk": {"type": "POI", "id": "g6JpZK84MjYwMDkwMDQ0NTkyMDihY6NHQlKhdqdVbmlmaWVk", "score": 2.5744462013, "dist": 502.7652184563146, "info": "search:ta:826009004459208-GB", "poi": {"name": "Ferry Road Service Station", "phone": "+(44)-(131)-5542279", "brands": [{"name": "BP"}], "categorySet": [{"id": 7311}], "categories": ["petrol station"], "classifications": [{"code": "PETROL_STATION", "names": [{"nameLocale": "en-US", "name": "petrol station"}]}]}, "address": {"streetNumber": "77", "streetName": "Ferry Road", "municipality": "Edinburgh", "countrySecondarySubdivision": "Midlothian", "countrySubdivision": "SCT", "countrySubdivisionName": "Scotland", "postalCode": "EH6", "extendedPostalCode": "EH6 4AH", "countryCode": "GB", "country": "United Kingdom", "countryCodeISO3": "GBR", "freeformAddress": "77 Ferry Road, Edinburgh, EH6 4AH", "localName": "Edinburgh"}, "position": {"lat": 55.9748, "lon": -3.18269}, "viewport": {"topLeftPoint": {"lat": 55.9757, "lon": -3.1843}, "btmRightPoint": {"lat": 55.9739, "lon": -3.18108}}, "entryPoints": [{"type": "main", "position": {"lat": 55.9749, "lon": -3.18226}}]}, "g6JpZK84MjYwMDkwMDkwODAzNDahY6NHQlKhdqdVbmlmaWVk": {"type": "POI", "id": "g6JpZK84MjYwMDkwMDkwODAzNDahY6NHQlKhdqdVbmlmaWVk", "score": 2.5732507706, "dist": 1990.3207574640383, "info": "search:ta:826009009080346-GB", "poi": {"name": "Canonmills SF Connect", "phone": "+(44)-(131)-5570556", "brands": [{"name": "BP"}], "categorySet": [{"id": 7311}], "url": "www.bp.com", "categories": ["petrol station"], "classifications": [{"code": "PETROL_STATION", "names": [{"nameLocale": "en-US", "name": "petrol station"}]}]}, "address": {"streetNumber": "23", "streetName": "Canonmills", "municipality": "Edinburgh", "countrySecondarySubdivision": "Midlothian", "countrySubdivision": "SCT", "countrySubdivisionName": "Scotland", "postalCode": "EH3", "extendedPostalCode": "EH3 5HA", "countryCode": "GB", "country": "United Kingdom", "countryCodeISO3": "GBR", "freeformAddress": "23 Canonmills, Edinburgh, EH3 5HA", "localName": "Edinburgh"}, "position": {"lat": 55.96235, "lon": -3.19809}, "viewport": {"topLeftPoint": {"lat": 55.96325, "lon": -3.1997}, "btmRightPoint": {"lat": 55.96145, "lon": -3.19648}}, "entryPoints": [{"type": "main", "position": {"lat": 55.96247, "lon": -3.1988}}]}, "g6JpZK84MjYwMDkwMDQzNTQ1MTShY6NHQlKhdqdVbmlmaWVk": {"type": "POI", "id": "g6JpZK84MjYwMDkwMDQzNTQ1MTShY6NHQlKhdqdVbmlmaWVk", "score": 2.56808424, "dist": 4484.036757479669, "info": "search:ta:826009004354514-GB", "poi": {"name": "Mrh Barclay Place", "phone": "+(44)-(131)-2284246", "brands": [{"name": "BP"}], "categorySet": [{"id": 7311}], "categories": ["petrol station"], "classifications": [{"code": "PETROL_STATION", "names": [{"nameLocale": "en-US", "name": "petrol station"}]}]}, "address": {"streetNumber": "21-23", "streetName": "Barclay Terrace", "municipality": "Edinburgh", "countrySecondarySubdivision": "Midlothian", "countrySubdivision": "SCT", "countrySubdivisionName": "Scotland", "postalCode": "EH10", "extendedPostalCode": "EH10 4HW", "countryCode": "GB", "country": "United Kingdom", "countryCodeISO3": "GBR", "freeformAddress": "21-23 Barclay Terrace, Edinburgh, EH10 4HW", "localName": "Edinburgh"}, "position": {"lat": 55.93995, "lon": -3.20451}, "viewport": {"topLeftPoint": {"lat": 55.94085, "lon": -3.20612}, "btmRightPoint": {"lat": 55.93905, "lon": -3.2029}}, "entryPoints": [{"type": "main", "position": {"lat": 55.94078, "lon": -3.20323}}]}, "g6JpZK84MjYwMDkwMjkzNDEwNzWhY6NHQlKhdqdVbmlmaWVk": {"type": "POI", "id": "g6JpZK84MjYwMDkwMjkzNDEwNzWhY6NHQlKhdqdVbmlmaWVk", "score": 2.5665187836, "dist": 5003.742144580832, "info": "search:ta:826009029341075-GB", "poi": {"name": "Mrh Ratcliffe", "phone": "+(44)-(131)-6684090", "brands": [{"name": "BP"}], "categorySet": [{"id": 7311}], "categories": ["petrol station"], "classifications": [{"code": "PETROL_STATION", "names": [{"nameLocale": "en-US", "name": "petrol station"}]}]}, "address": {"streetNumber": "2-4", "streetName": "Ratcliffe Terrace", "municipality": "Edinburgh", "countrySecondarySubdivision": "Midlothian", "countrySubdivision": "SCT", "countrySubdivisionName": "Scotland", "postalCode": "EH9", "extendedPostalCode": "EH9 1SX", "countryCode": "GB", "country": "United Kingdom", "countryCodeISO3": "GBR", "freeformAddress": "2-4 Ratcliffe Terrace, Edinburgh, EH9 1SX", "localName": "Edinburgh"}, "position": {"lat": 55.93412, "lon": -3.1785}, "viewport": {"topLeftPoint": {"lat": 55.93502, "lon": -3.18011}, "btmRightPoint": {"lat": 55.93322, "lon": -3.17689}}, "entryPoints": [{"type": "main", "position": {"lat": 55.93467, "lon": -3.17897}}]}, "g6JpZK84MjYwMDkwMDkxMTUwMDehY6NHQlKhdqdVbmlmaWVk": {"type": "POI", "id": "g6JpZK84MjYwMDkwMDkxMTUwMDehY6NHQlKhdqdVbmlmaWVk", "score": 2.5608229637, "dist": 6567.692133346119, "info": "search:ta:826009009115007-GB", "poi": {"name": "Slateford Road Sf Connect", "phone": "+(44)-(131)-4433161", "brands": [{"name": "BP"}], "categorySet": [{"id": 7311}], "categories": ["petrol station"], "classifications": [{"code": "PETROL_STATION", "names": [{"nameLocale": "en-US", "name": "petrol station"}]}]}, "address": {"streetNumber": "187", "streetName": "Hutchison Cottages", "municipality": "Edinburgh", "countrySecondarySubdivision": "Midlothian", "countrySubdivision": "SCT", "countrySubdivisionName": "Scotland", "postalCode": "EH14", "extendedPostalCode": "EH14 1PX", "countryCode": "GB", "country": "United Kingdom", "countryCodeISO3": "GBR", "freeformAddress": "187 Hutchison Cottages, Edinburgh, EH14 1PX", "localName": "Edinburgh"}, "position": {"lat": 55.9286, "lon": -3.24124}, "viewport": {"topLeftPoint": {"lat": 55.9295, "lon": -3.24285}, "btmRightPoint": {"lat": 55.9277, "lon": -3.23963}}, "entryPoints": [{"type": "main", "position": {"lat": 55.92838, "lon": -3.2414}}]}, "g6JpZK84MjYwMDkwMDQ1NzE1MjOhY6NHQlKhdqdVbmlmaWVk": {"type": "POI", "id": "g6JpZK84MjYwMDkwMDQ1NzE1MjOhY6NHQlKhdqdVbmlmaWVk", "score": 2.5499999523, "dist": 8844.01437486027, "info": "search:ta:826009004571523-GB", "poi": {"name": "Mrh Napier", "phone": "+(44)-(131)-4585419", "brands": [{"name": "BP"}], "categorySet": [{"id": 7311}], "categories": ["petrol station"], "classifications": [{"code": "PETROL_STATION", "names": [{"nameLocale": "en-US", "name": "petrol station"}]}]}, "address": {"streetNumber": "382", "streetName": "Calder Road", "municipality": "Edinburgh", "countrySecondarySubdivision": "Midlothian", "countrySubdivision": "SCT", "countrySubdivisionName": "Scotland", "postalCode": "EH11", "extendedPostalCode": "EH11 4AR", "countryCode": "GB", "country": "United Kingdom", "countryCodeISO3": "GBR", "freeformAddress": "382 Calder Road, Edinburgh, EH11 4AR", "localName": "Edinburgh"}, "position": {"lat": 55.9232, "lon": -3.28737}, "viewport": {"topLeftPoint": {"lat": 55.9241, "lon": -3.28898}, "btmRightPoint": {"lat": 55.9223, "lon": -3.28576}}, "entryPoints": [{"type": "main", "position": {"lat": 55.92301, "lon": -3.28728}}]}, "g6JpZK84MjYwMDgwMDAwMTgzNjShY6NHQlKhdqdVbmlmaWVk": {"type": "POI", "id": "g6JpZK84MjYwMDgwMDAwMTgzNjShY6NHQlKhdqdVbmlmaWVk", "score": 2.5455634594, "dist": 9636.843290669969, "info": "search:ta:826008000018364-GB", "poi": {"name": "BP Musselburgh", "brands": [{"name": "BP"}], "categorySet": [{"id": 7311}], "url": "www.bp.com", "categories": ["petrol station"], "classifications": [{"code": "PETROL_STATION", "names": [{"nameLocale": "en-US", "name": "petrol station"}]}]}, "address": {"municipalitySubdivision": "Old Craighall", "municipality": "Musselburgh", "countrySecondarySubdivision": "Midlothian", "countrySubdivision": "SCT", "countrySubdivisionName": "Scotland", "postalCode": "EH21", "extendedPostalCode": "EH21 8", "countryCode": "GB", "country": "United Kingdom", "countryCodeISO3": "GBR", "freeformAddress": "Musselburgh, EH21 8", "localName": "Musselburgh"}, "position": {"lat": 55.92623, "lon": -3.06311}, "viewport": {"topLeftPoint": {"lat": 55.92713, "lon": -3.06472}, "btmRightPoint": {"lat": 55.92533, "lon": -3.0615}}, "entryPoints": [{"type": "main", "position": {"lat": 55.92617, "lon": -3.06346}}]}, "g6JpZK84MjYwMDkwMDg5MDgwNzWhY6NHQlKhdqdVbmlmaWVk": {"type": "POI", "id": "g6JpZK84MjYwMDkwMDg5MDgwNzWhY6NHQlKhdqdVbmlmaWVk", "score": 2.5298504829, "dist": 12087.334667941399, "info": "search:ta:826009008908075-GB", "poi": {"name": "Ingliston Sf Connect", "phone": "+(44)-(131)-3353469", "brands": [{"name": "BP"}], "categorySet": [{"id": 7311}], "categories": ["petrol station"], "classifications": [{"code": "PETROL_STATION", "names": [{"nameLocale": "en-US", "name": "petrol station"}]}]}, "address": {"streetName": "Glasgow Road", "municipality": "Newbridge", "countrySecondarySubdivision": "Midlothian", "countrySubdivision": "SCT", "countrySubdivisionName": "Scotland", "postalCode": "EH28", "extendedPostalCode": "EH28 8", "countryCode": "GB", "country": "United Kingdom", "countryCodeISO3": "GBR", "freeformAddress": "Glasgow Road, Newbridge, EH28 8", "localName": "Newbridge"}, "position": {"lat": 55.9375, "lon": -3.36554}, "viewport": {"topLeftPoint": {"lat": 55.9384, "lon": -3.36715}, "btmRightPoint": {"lat": 55.9366, "lon": -3.36393}}, "entryPoints": [{"type": "main", "position": {"lat": 55.93752, "lon": -3.36553}}]}, "g6JpZK84MjYwMDkwMDkyMjAwMTehY6NHQlKhdqdVbmlmaWVk": {"type": "POI", "id": "g6JpZK84MjYwMDkwMDkyMjAwMTehY6NHQlKhdqdVbmlmaWVk", "score": 2.5218000412, "dist": 13199.55852172264, "info": "search:ta:826009009220017-GB", "poi": {"name": "St Davids Sf Connect", "phone": "+(44)-(1383)-823004", "brands": [{"name": "BP"}], "categorySet": [{"id": 7311}], "categories": ["petrol station"], "classifications": [{"code": "PETROL_STATION", "names": [{"nameLocale": "en-US", "name": "petrol station"}]}]}, "address": {"streetName": "Harbour Drive", "municipalitySubdivision": "Dalgety Bay", "municipality": "Dunfermline", "countrySecondarySubdivision": "Fife", "countrySubdivision": "SCT", "countrySubdivisionName": "Scotland", "postalCode": "KY11", "extendedPostalCode": "KY11 9", "countryCode": "GB", "country": "United Kingdom", "countryCodeISO3": "GBR", "freeformAddress": "Harbour Drive, Dunfermline, KY11 9", "localName": "Dunfermline"}, "position": {"lat": 56.04095, "lon": -3.36705}, "viewport": {"topLeftPoint": {"lat": 56.04185, "lon": -3.36866}, "btmRightPoint": {"lat": 56.04005, "lon": -3.36544}}, "entryPoints": [{"type": "main", "position": {"lat": 56.04084, "lon": -3.36735}}]}, "g6JpZK84MjYwMDkwMDk1OTA3MDKhY6NHQlKhdqdVbmlmaWVk": {"type": "POI", "id": "g6JpZK84MjYwMDkwMDk1OTA3MDKhY6NHQlKhdqdVbmlmaWVk", "score": 2.5174362659, "dist": 13774.06175470398, "info": "search:ta:826009009590702-GB", "poi": {"name": "Forth View Sf Connect", "phone": "+(44)-(131)-3311386", "brands": [{"name": "BP"}], "categorySet": [{"id": 7311}], "categories": ["petrol station"], "classifications": [{"code": "PETROL_STATION", "names": [{"nameLocale": "en-US", "name": "petrol station"}]}]}, "address": {"streetNumber": "10", "streetName": "Builyeon Road", "municipalitySubdivision": "Queensferry", "municipality": "South Queensferry", "countrySecondarySubdivision": "West Lothian", "countrySubdivision": "SCT", "countrySubdivisionName": "Scotland", "postalCode": "EH30", "extendedPostalCode": "EH30 9YJ", "countryCode": "GB", "country": "United Kingdom", "countryCodeISO3": "GBR", "freeformAddress": "10 Builyeon Road, South Queensferry, EH30 9YJ", "localName": "South Queensferry"}, "position": {"lat": 55.98394, "lon": -3.40724}, "viewport": {"topLeftPoint": {"lat": 55.98484, "lon": -3.40885}, "btmRightPoint": {"lat": 55.98304, "lon": -3.40563}}, "entryPoints": [{"type": "main", "position": {"lat": 55.98387, "lon": -3.40854}}]}, "g6JpZK84MjYwMDEwMDEyODUxNTChY6NHQlKhdqdVbmlmaWVk": {"type": "POI", "id": "g6JpZK84MjYwMDEwMDEyODUxNTChY6NHQlKhdqdVbmlmaWVk", "score": 2.5138144493, "dist": 14238.190043503291, "info": "search:ta:826001001285150-GB", "poi": {"name": "Mrh Newbridge Spar", "phone": "+(44)-(131)-3332197", "brands": [{"name": "BP"}], "categorySet": [{"id": 7311}], "categories": ["petrol station"], "classifications": [{"code": "PETROL_STATION", "names": [{"nameLocale": "en-US", "name": "petrol station"}]}]}, "address": {"streetNumber": "1", "streetName": "Cliftonhall Road", "municipality": "Newbridge", "countrySecondarySubdivision": "Midlothian", "countrySubdivision": "SCT", "countrySubdivisionName": "Scotland", "postalCode": "EH28", "extendedPostalCode": "EH28 8", "countryCode": "GB", "country": "United Kingdom", "countryCodeISO3": "GBR", "freeformAddress": "1 Cliftonhall Road, Newbridge, EH28 8", "localName": "Newbridge"}, "position": {"lat": 55.9387, "lon": -3.40317}, "viewport": {"topLeftPoint": {"lat": 55.9396, "lon": -3.40478}, "btmRightPoint": {"lat": 55.9378, "lon": -3.40156}}, "entryPoints": [{"type": "main", "position": {"lat": 55.93792, "lon": -3.40383}}]}, "g6JpZK84MjYwMDkwMDg5MjcyMDOhY6NHQlKhdqdVbmlmaWVk": {"type": "POI", "id": "g6JpZK84MjYwMDkwMDg5MjcyMDOhY6NHQlKhdqdVbmlmaWVk", "score": 2.4921195507, "dist": 16833.986320824955, "info": "search:ta:826009008927203-GB", "poi": {"name": "Mrh St Clair", "phone": "+(44)-(1592)-650383", "brands": [{"name": "BP"}], "categorySet": [{"id": 7311}], "categories": ["petrol station"], "classifications": [{"code": "PETROL_STATION", "names": [{"nameLocale": "en-US", "name": "petrol station"}]}]}, "address": {"streetNumber": "203", "streetName": "Saint Clair Street", "municipality": "Kirkcaldy", "countrySecondarySubdivision": "Fife", "countrySubdivision": "SCT", "countrySubdivisionName": "Scotland", "postalCode": "KY1", "extendedPostalCode": "KY1 2BX", "countryCode": "GB", "country": "United Kingdom", "countryCodeISO3": "GBR", "freeformAddress": "203 Saint Clair Street, Kirkcaldy, KY1 2BX", "localName": "Kirkcaldy"}, "position": {"lat": 56.12797, "lon": -3.13848}, "viewport": {"topLeftPoint": {"lat": 56.12887, "lon": -3.14009}, "btmRightPoint": {"lat": 56.12707, "lon": -3.13687}}, "entryPoints": [{"type": "main", "position": {"lat": 56.12822, "lon": -3.13767}}]}, "g6JpZK84MjYwMDkwMDY0MDM3MzGhY6NHQlKhdqdVbmlmaWVk": {"type": "POI", "id": "g6JpZK84MjYwMDkwMDY0MDM3MzGhY6NHQlKhdqdVbmlmaWVk", "score": 2.4913659096, "dist": 16919.664892529898, "info": "search:ta:826009006403731-GB", "poi": {"name": "Fairfield Service Station", "phone": "+(44)-(1506)-856690", "brands": [{"name": "BP"}], "categorySet": [{"id": 7311}], "categories": ["petrol station"], "classifications": [{"code": "PETROL_STATION", "names": [{"nameLocale": "en-US", "name": "petrol station"}]}]}, "address": {"streetName": "A89", "municipality": "Broxburn", "countrySecondarySubdivision": "West Lothian", "countrySubdivision": "SCT", "countrySubdivisionName": "Scotland", "postalCode": "EH52", "extendedPostalCode": "EH52 5BQ", "countryCode": "GB", "country": "United Kingdom", "countryCodeISO3": "GBR", "freeformAddress": "A89, Broxburn, EH52 5BQ", "localName": "Broxburn"}, "position": {"lat": 55.9349, "lon": -3.44619}, "viewport": {"topLeftPoint": {"lat": 55.9358, "lon": -3.4478}, "btmRightPoint": {"lat": 55.934, "lon": -3.44458}}, "entryPoints": [{"type": "main", "position": {"lat": 55.93491, "lon": -3.4462}}]}, "g6JpZK84MjYwMDkwMDg5MjIzMDehY6NHQlKhdqdVbmlmaWVk": {"type": "POI", "id": "g6JpZK84MjYwMDkwMDg5MjIzMDehY6NHQlKhdqdVbmlmaWVk", "score": 2.4705731869, "dist": 19200.211288846698, "info": "search:ta:826009008922307-GB", "poi": {"name": "Bothwell Street Service Station", "phone": "+(44)-(1383)-730602", "brands": [{"name": "BP"}], "categorySet": [{"id": 7311}], "categories": ["petrol station"], "classifications": [{"code": "PETROL_STATION", "names": [{"nameLocale": "en-US", "name": "petrol station"}]}]}, "address": {"streetName": "Bothwell Street", "municipality": "Dunfermline", "countrySecondarySubdivision": "Fife", "countrySubdivision": "SCT", "countrySubdivisionName": "Scotland", "postalCode": "KY11", "extendedPostalCode": "KY11 3AG", "countryCode": "GB", "country": "United Kingdom", "countryCodeISO3": "GBR", "freeformAddress": "Bothwell Street, Dunfermline, KY11 3AG", "localName": "Dunfermline"}, "position": {"lat": 56.06546, "lon": -3.45337}, "viewport": {"topLeftPoint": {"lat": 56.06636, "lon": -3.45498}, "btmRightPoint": {"lat": 56.06456, "lon": -3.45176}}, "entryPoints": [{"type": "main", "position": {"lat": 56.06535, "lon": -3.45359}}]}, "g6JpZK84MjYwMDkwMDkwNjcwOTShY6NHQlKhdqdVbmlmaWVk": {"type": "POI", "id": "g6JpZK84MjYwMDkwMDkwNjcwOTShY6NHQlKhdqdVbmlmaWVk", "score": 2.4403753281, "dist": 22319.915448670035, "info": "search:ta:826009009067094-GB", "poi": {"name": "Deer Park Sf Connect", "phone": "+(44)-(1506)-436770", "brands": [{"name": "BP"}], "categorySet": [{"id": 7311}], "categories": ["petrol station"], "classifications": [{"code": "PETROL_STATION", "names": [{"nameLocale": "en-US", "name": "petrol station"}]}]}, "address": {"streetName": "Livingston East Roundabout", "municipality": "Livingston", "countrySecondarySubdivision": "West Lothian", "countrySubdivision": "SCT", "countrySubdivisionName": "Scotland", "postalCode": "EH54", "extendedPostalCode": "EH54 8", "countryCode": "GB", "country": "United Kingdom", "countryCodeISO3": "GBR", "freeformAddress": "Livingston East Roundabout, Livingston, EH54 8", "localName": "Livingston"}, "position": {"lat": 55.91493, "lon": -3.52577}, "viewport": {"topLeftPoint": {"lat": 55.91583, "lon": -3.52737}, "btmRightPoint": {"lat": 55.91403, "lon": -3.52417}}, "entryPoints": [{"type": "main", "position": {"lat": 55.91517, "lon": -3.52506}}]}, "g6JpZK84MjYwMDkwMDg5MTE1MDihY6NHQlKhdqdVbmlmaWVk": {"type": "POI", "id": "g6JpZK84MjYwMDkwMDg5MTE1MDihY6NHQlKhdqdVbmlmaWVk", "score": 2.4351582527, "dist": 22844.992842119216, "info": "search:ta:826009008911508-GB", "poi": {"name": "Bankhead Sf Connect", "phone": "+(44)-(1592)-779159", "brands": [{"name": "BP"}], "categorySet": [{"id": 7311}], "categories": ["petrol station"], "classifications": [{"code": "PETROL_STATION", "names": [{"nameLocale": "en-US", "name": "petrol station"}]}]}, "address": {"streetName": "Bankhead Park", "municipality": "Glenrothes", "countrySecondarySubdivision": "Fife", "countrySubdivision": "SCT", "countrySubdivisionName": "Scotland", "postalCode": "KY7", "extendedPostalCode": "KY7 6GH", "countryCode": "GB", "country": "United Kingdom", "countryCodeISO3": "GBR", "freeformAddress": "Bankhead Park, Glenrothes, KY7 6GH", "localName": "Glenrothes"}, "position": {"lat": 56.18309, "lon": -3.14493}, "viewport": {"topLeftPoint": {"lat": 56.18399, "lon": -3.14655}, "btmRightPoint": {"lat": 56.18219, "lon": -3.14331}}, "entryPoints": [{"type": "main", "position": {"lat": 56.18309, "lon": -3.14466}}]}, "g6JpZK84MjYwMDkwMDg5MDM4MjihY6NHQlKhdqdVbmlmaWVk": {"type": "POI", "id": "g6JpZK84MjYwMDkwMDg5MDM4MjihY6NHQlKhdqdVbmlmaWVk", "score": 2.4243075848, "dist": 23929.420395432626, "info": "search:ta:826009008903828-GB", "poi": {"name": "Mrh Carmondean Spar", "phone": "+(44)-(1506)-443802", "brands": [{"name": "BP"}], "categorySet": [{"id": 7311}], "categories": ["petrol station"], "classifications": [{"code": "PETROL_STATION", "names": [{"nameLocale": "en-US", "name": "petrol station"}]}]}, "address": {"streetName": "Carmondean Centre South", "municipality": "Livingston", "countrySecondarySubdivision": "West Lothian", "countrySubdivision": "SCT", "countrySubdivisionName": "Scotland", "postalCode": "EH54", "extendedPostalCode": "EH54 8GT", "countryCode": "GB", "country": "United Kingdom", "countryCodeISO3": "GBR", "freeformAddress": "Carmondean Centre South, Livingston, EH54 8GT", "localName": "Livingston"}, "position": {"lat": 55.9023, "lon": -3.54508}, "viewport": {"topLeftPoint": {"lat": 55.9032, "lon": -3.54668}, "btmRightPoint": {"lat": 55.9014, "lon": -3.54348}}, "entryPoints": [{"type": "main", "position": {"lat": 55.90241, "lon": -3.54494}}]}, "g6JpZK84MjYwMDkwMDM0Nzk4MjShY6NHQlKhdqdVbmlmaWVk": {"type": "POI", "id": "g6JpZK84MjYwMDkwMDM0Nzk4MjShY6NHQlKhdqdVbmlmaWVk", "score": 2.4111022949, "dist": 25240.434084472035, "info": "search:ta:826009003479824-GB", "poi": {"name": "Royston Service Station", "phone": "+(44)-(1506)-811807", "brands": [{"name": "BP"}], "categorySet": [{"id": 7311}], "categories": ["petrol station"], "classifications": [{"code": "PETROL_STATION", "names": [{"nameLocale": "en-US", "name": "petrol station"}]}]}, "address": {"streetName": "A89", "municipalitySubdivision": "Deans", "municipality": "Livingston", "countrySecondarySubdivision": "West Lothian", "countrySubdivision": "SCT", "countrySubdivisionName": "Scotland", "postalCode": "EH54", "extendedPostalCode": "EH54 8", "countryCode": "GB", "country": "United Kingdom", "countryCodeISO3": "GBR", "freeformAddress": "A89, Livingston, EH54 8", "localName": "Livingston"}, "position": {"lat": 55.91025, "lon": -3.57236}, "viewport": {"topLeftPoint": {"lat": 55.91115, "lon": -3.57396}, "btmRightPoint": {"lat": 55.90935, "lon": -3.57076}}, "entryPoints": [{"type": "main", "position": {"lat": 55.91025, "lon": -3.57237}}]}, "g6JpZK84MjYwMDkwMDQ0NTk1MTahY6NHQlKhdqdVbmlmaWVk": {"type": "POI", "id": "g6JpZK84MjYwMDkwMDQ0NTk1MTahY6NHQlKhdqdVbmlmaWVk", "score": 2.3984115124, "dist": 26497.619049049754, "info": "search:ta:826009004459516-GB", "poi": {"name": "Mrh Leven Spar", "phone": "+(44)-(1333)-425821", "brands": [{"name": "BP"}], "categorySet": [{"id": 7311}], "categories": ["petrol station"], "classifications": [{"code": "PETROL_STATION", "names": [{"nameLocale": "en-US", "name": "petrol station"}]}]}, "address": {"streetName": "Windygates Road", "municipality": "Leven", "countrySecondarySubdivision": "Fife", "countrySubdivision": "SCT", "countrySubdivisionName": "Scotland", "postalCode": "KY8", "extendedPostalCode": "KY8 4AX", "countryCode": "GB", "country": "United Kingdom", "countryCodeISO3": "GBR", "freeformAddress": "Windygates Road, Leven, KY8 4AX", "localName": "Leven"}, "position": {"lat": 56.19856, "lon": -3.02031}, "viewport": {"topLeftPoint": {"lat": 56.19946, "lon": -3.02193}, "btmRightPoint": {"lat": 56.19766, "lon": -3.01869}}, "entryPoints": [{"type": "main", "position": {"lat": 56.1988, "lon": -3.0204}}]}, "g6JpZK84MjYwMDkwMDMzNjk1ODKhY6NHQlKhdqdVbmlmaWVk": {"type": "POI", "id": "g6JpZK84MjYwMDkwMDMzNjk1ODKhY6NHQlKhdqdVbmlmaWVk", "score": 2.3969945908, "dist": 26638.058880874705, "info": "search:ta:826009003369582-GB", "poi": {"name": "Polbeth Service Station", "phone": "+(44)-(1506)-872824", "brands": [{"name": "BP"}], "categorySet": [{"id": 7311}], "categories": ["petrol station"], "classifications": [{"code": "PETROL_STATION", "names": [{"nameLocale": "en-US", "name": "petrol station"}]}]}, "address": {"streetName": "Polbeth Road", "municipalitySubdivision": "Polbeth", "municipality": "West Calder", "countrySecondarySubdivision": "West Lothian", "countrySubdivision": "SCT", "countrySubdivisionName": "Scotland", "postalCode": "EH55", "extendedPostalCode": "EH55 8SR", "countryCode": "GB", "country": "United Kingdom", "countryCodeISO3": "GBR", "freeformAddress": "Polbeth Road, West Calder, EH55 8SR", "localName": "West Calder"}, "position": {"lat": 55.8586, "lon": -3.55568}, "viewport": {"topLeftPoint": {"lat": 55.86, "lon": -3.55818}, "btmRightPoint": {"lat": 55.8572, "lon": -3.55318}}, "entryPoints": [{"type": "main", "position": {"lat": 55.85961, "lon": -3.55394}}]}, "g6JpZK84MjYwMDkwMDgyMDI1MjKhY6NHQlKhdqdVbmlmaWVk": {"type": "POI", "id": "g6JpZK84MjYwMDkwMDgyMDI1MjKhY6NHQlKhdqdVbmlmaWVk", "score": 2.3916642666, "dist": 27167.022315425667, "info": "search:ta:826009008202522-GB", "poi": {"name": "Linlithgow Sf Connect", "phone": "+(44)-(1506)-671346", "brands": [{"name": "BP"}], "categorySet": [{"id": 7311}], "categories": ["petrol station"], "classifications": [{"code": "PETROL_STATION", "names": [{"nameLocale": "en-US", "name": "petrol station"}]}]}, "address": {"streetNumber": "30", "streetName": "Falkirk Road", "municipality": "Linlithgow", "countrySecondarySubdivision": "West Lothian", "countrySubdivision": "SCT", "countrySubdivisionName": "Scotland", "postalCode": "EH49", "extendedPostalCode": "EH49 7PJ", "countryCode": "GB", "country": "United Kingdom", "countryCodeISO3": "GBR", "freeformAddress": "30 Falkirk Road, Linlithgow, EH49 7PJ", "localName": "Linlithgow"}, "position": {"lat": 55.97583, "lon": -3.62263}, "viewport": {"topLeftPoint": {"lat": 55.97673, "lon": -3.62424}, "btmRightPoint": {"lat": 55.97493, "lon": -3.62102}}, "entryPoints": [{"type": "main", "position": {"lat": 55.97572, "lon": -3.62273}}]}, "g6JpZK84MjYwMDkwMDE2NjE1OTKhY6NHQlKhdqdVbmlmaWVk": {"type": "POI", "id": "g6JpZK84MjYwMDkwMDE2NjE1OTKhY6NHQlKhdqdVbmlmaWVk", "score": 2.3853480816, "dist": 27795.29173724147, "info": "search:ta:826009001661592-GB", "poi": {"name": "Boghall Filling Station", "phone": "+(44)-(1506)-635319", "brands": [{"name": "BP"}], "categorySet": [{"id": 7311}], "categories": ["petrol station"], "classifications": [{"code": "PETROL_STATION", "names": [{"nameLocale": "en-US", "name": "petrol station"}]}]}, "address": {"streetName": "Edinburgh Road", "municipality": "Bathgate", "countrySecondarySubdivision": "West Lothian", "countrySubdivision": "SCT", "countrySubdivisionName": "Scotland", "postalCode": "EH48", "extendedPostalCode": "EH48 1LE", "countryCode": "GB", "country": "United Kingdom", "countryCodeISO3": "GBR", "freeformAddress": "Edinburgh Road, Bathgate, EH48 1LE", "localName": "Bathgate"}, "position": {"lat": 55.89745, "lon": -3.60794}, "viewport": {"topLeftPoint": {"lat": 55.89835, "lon": -3.60954}, "btmRightPoint": {"lat": 55.89655, "lon": -3.60634}}, "entryPoints": [{"type": "main", "position": {"lat": 55.89742, "lon": -3.60793}}]}, "g6JpZK84MjYwMDkwMDg4OTMxNjehY6NHQlKhdqdVbmlmaWVk": {"type": "POI", "id": "g6JpZK84MjYwMDkwMDg4OTMxNjehY6NHQlKhdqdVbmlmaWVk", "score": 2.3680536747, "dist": 29529.583765013736, "info": "search:ta:826009008893167-GB", "poi": {"name": "Bathgate Filling Station", "phone": "+(44)-(1506)-656822", "brands": [{"name": "BP"}], "categorySet": [{"id": 7311}], "categories": ["petrol station"], "classifications": [{"code": "PETROL_STATION", "names": [{"nameLocale": "en-US", "name": "petrol station"}]}]}, "address": {"streetNumber": "1", "streetName": "Edinburgh Road", "municipality": "Bathgate", "countrySecondarySubdivision": "West Lothian", "countrySubdivision": "SCT", "countrySubdivisionName": "Scotland", "postalCode": "EH48", "extendedPostalCode": "EH48 1BA", "countryCode": "GB", "country": "United Kingdom", "countryCodeISO3": "GBR", "freeformAddress": "1 Edinburgh Road, Bathgate, EH48 1BA", "localName": "Bathgate"}, "position": {"lat": 55.89864, "lon": -3.63798}, "viewport": {"topLeftPoint": {"lat": 55.89954, "lon": -3.63958}, "btmRightPoint": {"lat": 55.89774, "lon": -3.63638}}, "entryPoints": [{"type": "main", "position": {"lat": 55.89873, "lon": -3.63787}}]}, "g6JpZK84MjYwMDkwMTMyNjA0MzahY6NHQlKhdqdVbmlmaWVk": {"type": "POI", "id": "g6JpZK84MjYwMDkwMTMyNjA0MzahY6NHQlKhdqdVbmlmaWVk", "score": 2.3628668785, "dist": 30055.362787831797, "info": "search:ta:826009013260436-GB", "poi": {"name": "BP Kinross Motorway Service Area", "phone": "+(44)-(1577)-863123", "brands": [{"name": "BP"}], "categorySet": [{"id": 7311}], "categories": ["petrol station"], "classifications": [{"code": "PETROL_STATION", "names": [{"nameLocale": "en-US", "name": "petrol station"}]}]}, "address": {"municipality": "Kinross", "countrySecondarySubdivision": "Kinrossshire", "countrySubdivision": "SCT", "countrySubdivisionName": "Scotland", "postalCode": "KY13", "extendedPostalCode": "KY13 7NQ", "countryCode": "GB", "country": "United Kingdom", "countryCodeISO3": "GBR", "freeformAddress": "Kinross, KY13 7NQ", "localName": "Kinross"}, "position": {"lat": 56.20912, "lon": -3.43996}, "viewport": {"topLeftPoint": {"lat": 56.21002, "lon": -3.44158}, "btmRightPoint": {"lat": 56.20822, "lon": -3.43834}}, "entryPoints": [{"type": "main", "position": {"lat": 56.20912, "lon": -3.43996}}]}, "g6JpZK84MjYwMDkwMDgyNjEwMzahY6NHQlKhdqdVbmlmaWVk": {"type": "POI", "id": "g6JpZK84MjYwMDkwMDgyNjEwMzahY6NHQlKhdqdVbmlmaWVk", "score": 2.3596262932, "dist": 30385.498344012227, "info": "search:ta:826009008261036-GB", "poi": {"name": "Bridgend Services", "phone": "+(44)-(1337)-858013", "brands": [{"name": "BP"}], "categorySet": [{"id": 7311}], "categories": ["petrol station"], "classifications": [{"code": "PETROL_STATION", "names": [{"nameLocale": "en-US", "name": "petrol station"}]}]}, "address": {"streetName": "A92", "municipalitySubdivision": "Freuchie", "municipality": "Cupar", "countrySecondarySubdivision": "Fife", "countrySubdivision": "SCT", "countrySubdivisionName": "Scotland", "postalCode": "KY15", "extendedPostalCode": "KY15 7", "countryCode": "GB", "country": "United Kingdom", "countryCodeISO3": "GBR", "freeformAddress": "A92, Cupar, KY15 7", "localName": "Cupar"}, "position": {"lat": 56.25138, "lon": -3.14839}, "viewport": {"topLeftPoint": {"lat": 56.25228, "lon": -3.15001}, "btmRightPoint": {"lat": 56.25048, "lon": -3.14677}}, "entryPoints": [{"type": "main", "position": {"lat": 56.25142, "lon": -3.14866}}]}, "g6JpZK84MjYwMDEwMDE4NzA0MTmhY6NHQlKhdqdVbmlmaWVk": {"type": "POI", "id": "g6JpZK84MjYwMDEwMDE4NzA0MTmhY6NHQlKhdqdVbmlmaWVk", "score": 2.3577611446, "dist": 30576.14456002553, "info": "search:ta:826001001870419-GB", "poi": {"name": "Mosshall Service Station", "phone": "+(44)-(1506)-631903", "brands": [{"name": "BP"}], "categorySet": [{"id": 7311}], "categories": ["petrol station"], "classifications": [{"code": "PETROL_STATION", "names": [{"nameLocale": "en-US", "name": "petrol station"}]}]}, "address": {"streetNumber": "55", "streetName": "Main Street", "municipalitySubdivision": "Blackburn", "municipality": "Bathgate", "countrySecondarySubdivision": "West Lothian", "countrySubdivision": "SCT", "countrySubdivisionName": "Scotland", "postalCode": "EH47", "extendedPostalCode": "EH47 7", "countryCode": "GB", "country": "United Kingdom", "countryCodeISO3": "GBR", "freeformAddress": "55 Main Street, Bathgate, EH47 7", "localName": "Bathgate"}, "position": {"lat": 55.87059, "lon": -3.6371}, "viewport": {"topLeftPoint": {"lat": 55.87149, "lon": -3.6387}, "btmRightPoint": {"lat": 55.86969, "lon": -3.6355}}, "entryPoints": [{"type": "main", "position": {"lat": 55.8706, "lon": -3.6371}}]}, "g6JpZK84MjYwMDkwMDkyMTQ0MjmhY6NHQlKhdqdVbmlmaWVk": {"type": "POI", "id": "g6JpZK84MjYwMDkwMDkyMTQ0MjmhY6NHQlKhdqdVbmlmaWVk", "score": 2.3487567902, "dist": 31503.718778131228, "info": "search:ta:826009009214429-GB", "poi": {"name": "Bowhouse Service Station", "phone": "+(44)-(1324)-718136", "brands": [{"name": "BP"}], "categorySet": [{"id": 7311}], "categories": ["petrol station"], "classifications": [{"code": "PETROL_STATION", "names": [{"nameLocale": "en-US", "name": "petrol station"}]}]}, "address": {"streetName": "A801", "municipalitySubdivision": "Maddiston", "municipality": "Falkirk", "countrySecondarySubdivision": "Stirlingshire", "countrySubdivision": "SCT", "countrySubdivisionName": "Scotland", "postalCode": "FK2", "extendedPostalCode": "FK2 0", "countryCode": "GB", "country": "United Kingdom", "countryCodeISO3": "GBR", "freeformAddress": "A801, Falkirk, FK2 0", "localName": "Falkirk"}, "position": {"lat": 55.9598, "lon": -3.69111}, "viewport": {"topLeftPoint": {"lat": 55.9607, "lon": -3.69272}, "btmRightPoint": {"lat": 55.9589, "lon": -3.6895}}, "entryPoints": [{"type": "main", "position": {"lat": 55.95979, "lon": -3.69119}}]}, "g6JpZK84MjYwMDkwMDM3MzU4MTShY6NHQlKhdqdVbmlmaWVk": {"type": "POI", "id": "g6JpZK84MjYwMDkwMDM3MzU4MTShY6NHQlKhdqdVbmlmaWVk", "score": 2.3394112587, "dist": 32480.92048395211, "info": "search:ta:826009003735814-GB", "poi": {"name": "Refinery Service Station", "phone": "+(44)-(1324)-483784", "brands": [{"name": "BP"}], "categorySet": [{"id": 7311}], "categories": ["petrol station"], "classifications": [{"code": "PETROL_STATION", "names": [{"nameLocale": "en-US", "name": "petrol station"}]}]}, "address": {"streetName": "Bo'Ness Road", "municipality": "Grangemouth", "countrySecondarySubdivision": "Stirlingshire", "countrySubdivision": "SCT", "countrySubdivisionName": "Scotland", "postalCode": "FK3", "extendedPostalCode": "FK3 9UP", "countryCode": "GB", "country": "United Kingdom", "countryCodeISO3": "GBR", "freeformAddress": "Bo'Ness Road, Grangemouth, FK3 9UP", "localName": "Grangemouth"}, "position": {"lat": 56.0151, "lon": -3.70432}, "viewport": {"topLeftPoint": {"lat": 56.016, "lon": -3.70593}, "btmRightPoint": {"lat": 56.0142, "lon": -3.70271}}, "entryPoints": [{"type": "main", "position": {"lat": 56.01511, "lon": -3.70431}}]}, "g6JpZK84MjYwMDkwMDkyNjE5NjKhY6NHQlKhdqdVbmlmaWVk": {"type": "POI", "id": "g6JpZK84MjYwMDkwMDkyNjE5NjKhY6NHQlKhdqdVbmlmaWVk", "score": 2.3226032257, "dist": 34284.85377923803, "info": "search:ta:826009009261962-GB", "poi": {"name": "Colinsburgh Filling Station", "phone": "+(44)-(1333)-331192", "brands": [{"name": "BP"}], "categorySet": [{"id": 7311}], "categories": ["petrol station"], "classifications": [{"code": "PETROL_STATION", "names": [{"nameLocale": "en-US", "name": "petrol station"}]}]}, "address": {"streetNumber": "17", "streetName": "Main Street", "municipalitySubdivision": "Colinsburgh", "municipality": "Leven", "countrySecondarySubdivision": "Fife", "countrySubdivision": "SCT", "countrySubdivisionName": "Scotland", "postalCode": "KY9", "extendedPostalCode": "KY9 1LR", "countryCode": "GB", "country": "United Kingdom", "countryCodeISO3": "GBR", "freeformAddress": "17 Main Street, Leven, KY9 1LR", "localName": "Leven"}, "position": {"lat": 56.22084, "lon": -2.84326}, "viewport": {"topLeftPoint": {"lat": 56.22224, "lon": -2.84578}, "btmRightPoint": {"lat": 56.21944, "lon": -2.84074}}, "entryPoints": [{"type": "main", "position": {"lat": 56.2207, "lon": -2.84577}}]}, "g6JpZK84MjYwMDkwMDkwMDQ1NzahY6NHQlKhdqdVbmlmaWVk": {"type": "POI", "id": "g6JpZK84MjYwMDkwMDkwMDQ1NzahY6NHQlKhdqdVbmlmaWVk", "score": 2.3152520657, "dist": 35096.529653687845, "info": "search:ta:826009009004576-GB", "poi": {"name": "Earlsgate Sf Connect", "phone": "+(44)-(1324)-489463", "brands": [{"name": "BP"}], "categorySet": [{"id": 7311}], "categories": ["petrol station"], "classifications": [{"code": "PETROL_STATION", "names": [{"nameLocale": "en-US", "name": "petrol station"}]}]}, "address": {"streetName": "Falkirk Road", "municipality": "Grangemouth", "countrySecondarySubdivision": "Stirlingshire", "countrySubdivision": "SCT", "countrySubdivisionName": "Scotland", "postalCode": "FK3", "extendedPostalCode": "FK3 8XP", "countryCode": "GB", "country": "United Kingdom", "countryCodeISO3": "GBR", "freeformAddress": "Falkirk Road, Grangemouth, FK3 8XP", "localName": "Grangemouth"}, "position": {"lat": 56.01202, "lon": -3.74727}, "viewport": {"topLeftPoint": {"lat": 56.01292, "lon": -3.74888}, "btmRightPoint": {"lat": 56.01112, "lon": -3.74566}}, "entryPoints": [{"type": "main", "position": {"lat": 56.0118, "lon": -3.74589}}]}, "g6JpZK84MjYwMDkwMDgzNzc2OTmhY6NHQlKhdqdVbmlmaWVk": {"type": "POI", "id": "g6JpZK84MjYwMDkwMDgzNzc2OTmhY6NHQlKhdqdVbmlmaWVk", "score": 2.3137922287, "dist": 35259.59441902296, "info": "search:ta:826009008377699-GB", "poi": {"name": "Crossburn Filling Station", "phone": "+(44)-(1721)-721350", "brands": [{"name": "BP"}], "categorySet": [{"id": 7311}], "categories": ["petrol station"], "classifications": [{"code": "PETROL_STATION", "names": [{"nameLocale": "en-US", "name": "petrol station"}]}]}, "address": {"streetNumber": "85-91", "streetName": "Edinburgh Road", "municipality": "Peebles", "countrySecondarySubdivision": "Peeblesshire", "countrySubdivision": "SCT", "countrySubdivisionName": "Scotland", "postalCode": "EH45", "extendedPostalCode": "EH45 8QF", "countryCode": "GB", "country": "United Kingdom", "countryCodeISO3": "GBR", "freeformAddress": "85-91 Edinburgh Road, Peebles, EH45 8QF", "localName": "Peebles"}, "position": {"lat": 55.66185, "lon": -3.19291}, "viewport": {"topLeftPoint": {"lat": 55.66275, "lon": -3.1945}, "btmRightPoint": {"lat": 55.66095, "lon": -3.19132}}, "entryPoints": [{"type": "main", "position": {"lat": 55.66206, "lon": -3.19286}}]}, "g6JpZK84MjYwMDkwMDkwOTU3NTOhY6NHQlKhdqdVbmlmaWVk": {"type": "POI", "id": "g6JpZK84MjYwMDkwMDkwOTU3NTOhY6NHQlKhdqdVbmlmaWVk", "score": 2.3021349907, "dist": 36586.771496776746, "info": "search:ta:826009009095753-GB", "poi": {"name": "Mrh Kincardine Bridge Spar", "phone": "+(44)-(1324)-832704", "brands": [{"name": "BP"}], "categorySet": [{"id": 7311}], "categories": ["petrol station"], "classifications": [{"code": "PETROL_STATION", "names": [{"nameLocale": "en-US", "name": "petrol station"}]}]}, "address": {"municipalitySubdivision": "Airth", "municipality": "Falkirk", "countrySecondarySubdivision": "Stirlingshire", "countrySubdivision": "SCT", "countrySubdivisionName": "Scotland", "postalCode": "FK2", "extendedPostalCode": "FK2 8PF", "countryCode": "GB", "country": "United Kingdom", "countryCodeISO3": "GBR", "freeformAddress": "Falkirk, FK2 8PF", "localName": "Falkirk"}, "position": {"lat": 56.0537, "lon": -3.75926}, "viewport": {"topLeftPoint": {"lat": 56.0546, "lon": -3.76087}, "btmRightPoint": {"lat": 56.0528, "lon": -3.75765}}, "entryPoints": [{"type": "main", "position": {"lat": 56.05367, "lon": -3.75916}}]}, "g6JpZK84MjYwMDkwMDkxNDY4ODShY6NHQlKhdqdVbmlmaWVk": {"type": "POI", "id": "g6JpZK84MjYwMDkwMDkxNDY4ODShY6NHQlKhdqdVbmlmaWVk", "score": 2.2917137146, "dist": 37815.882878828736, "info": "search:ta:826009009146884-GB", "poi": {"name": "BP Harthill North SF Connect Motorway Service Area", "phone": "+(44)-(1501)-751403", "brands": [{"name": "BP"}], "categorySet": [{"id": 7311}], "categories": ["petrol station"], "classifications": [{"code": "PETROL_STATION", "names": [{"nameLocale": "en-US", "name": "petrol station"}]}]}, "address": {"municipalitySubdivision": "Harthill", "municipality": "Shotts", "countrySecondarySubdivision": "Lanarkshire", "countrySubdivision": "SCT", "countrySubdivisionName": "Scotland", "postalCode": "ML7", "extendedPostalCode": "ML7 5TT", "countryCode": "GB", "country": "United Kingdom", "countryCodeISO3": "GBR", "freeformAddress": "Shotts, ML7 5TT", "localName": "Shotts"}, "position": {"lat": 55.86427, "lon": -3.75742}, "viewport": {"topLeftPoint": {"lat": 55.86816, "lon": -3.76435}, "btmRightPoint": {"lat": 55.86038, "lon": -3.75049}}, "entryPoints": [{"type": "main", "position": {"lat": 55.86234, "lon": -3.76344}}]}, "g6JpZK84MjYwMDkwMzA1OTQ2ODKhY6NHQlKhdqdVbmlmaWVk": {"type": "POI", "id": "g6JpZK84MjYwMDkwMzA1OTQ2ODKhY6NHQlKhdqdVbmlmaWVk", "score": 2.2910988331, "dist": 37889.84748508544, "info": "search:ta:826009030594682-GB", "poi": {"name": "BP Harthill South Sf Connect Motorway Service Area", "phone": "+(44)-(1501)-752373", "brands": [{"name": "BP"}], "categorySet": [{"id": 7311}], "categories": ["petrol station"], "classifications": [{"code": "PETROL_STATION", "names": [{"nameLocale": "en-US", "name": "petrol station"}]}]}, "address": {"municipalitySubdivision": "Harthill", "municipality": "Shotts", "countrySecondarySubdivision": "Lanarkshire", "countrySubdivision": "SCT", "countrySubdivisionName": "Scotland", "postalCode": "ML7", "extendedPostalCode": "ML7 5TT", "countryCode": "GB", "country": "United Kingdom", "countryCodeISO3": "GBR", "freeformAddress": "Shotts, ML7 5TT", "localName": "Shotts"}, "position": {"lat": 55.86299, "lon": -3.75785}, "viewport": {"topLeftPoint": {"lat": 55.86389, "lon": -3.75945}, "btmRightPoint": {"lat": 55.86209, "lon": -3.75625}}, "entryPoints": [{"type": "main", "position": {"lat": 55.86288, "lon": -3.75713}}]}, "g6JpZK84MjYwMDkwMDQ0MTA0NzahY6NHQlKhdqdVbmlmaWVk": {"type": "POI", "id": "g6JpZK84MjYwMDkwMDQ0MTA0NzahY6NHQlKhdqdVbmlmaWVk", "score": 2.2377927303, "dist": 45178.70792566061, "info": "search:ta:826009004410476-GB", "poi": {"name": "Station Garage", "phone": "+(44)-(1899)-220089", "brands": [{"name": "BP"}], "categorySet": [{"id": 7311}], "categories": ["petrol station"], "classifications": [{"code": "PETROL_STATION", "names": [{"nameLocale": "en-US", "name": "petrol station"}]}]}, "address": {"streetName": "Coulter Road", "municipality": "Biggar", "countrySecondarySubdivision": "Lanarkshire", "countrySubdivision": "SCT", "countrySubdivisionName": "Scotland", "postalCode": "ML12", "extendedPostalCode": "ML12 6EP", "countryCode": "GB", "country": "United Kingdom", "countryCodeISO3": "GBR", "freeformAddress": "Coulter Road, Biggar, ML12 6EP", "localName": "Biggar"}, "position": {"lat": 55.6213, "lon": -3.52909}, "viewport": {"topLeftPoint": {"lat": 55.6222, "lon": -3.53068}, "btmRightPoint": {"lat": 55.6204, "lon": -3.5275}}, "entryPoints": [{"type": "main", "position": {"lat": 55.62138, "lon": -3.52926}}]}, "g6JpZK84MjYwMDkwMDE4MTM5OTOhY6NHQlKhdqdVbmlmaWVk": {"type": "POI", "id": "g6JpZK84MjYwMDkwMDE4MTM5OTOhY6NHQlKhdqdVbmlmaWVk", "score": 2.2269647121, "dist": 46976.89398976665, "info": "search:ta:826009001813993-GB", "poi": {"name": "M9 Stirling Motorway Service Area", "phone": "+(44)-(1786)-813614", "brands": [{"name": "BP"}], "categorySet": [{"id": 7311}], "categories": ["petrol station"], "classifications": [{"code": "PETROL_STATION", "names": [{"nameLocale": "en-US", "name": "petrol station"}]}]}, "address": {"municipality": "Stirling", "countrySecondarySubdivision": "Stirlingshire", "countrySubdivision": "SCT", "countrySubdivisionName": "Scotland", "postalCode": "FK7", "extendedPostalCode": "FK7 8ET", "countryCode": "GB", "country": "United Kingdom", "countryCodeISO3": "GBR", "freeformAddress": "Stirling, FK7 8ET", "localName": "Stirling"}, "position": {"lat": 56.07661, "lon": -3.92157}, "viewport": {"topLeftPoint": {"lat": 56.07751, "lon": -3.92318}, "btmRightPoint": {"lat": 56.07571, "lon": -3.91996}}, "entryPoints": [{"type": "main", "position": {"lat": 56.0765, "lon": -3.92206}}]}, "g6JpZK84MjYwMDkwMDM5NzE2NDehY6NHQlKhdqdVbmlmaWVk": {"type": "POI", "id": "g6JpZK84MjYwMDkwMDM5NzE2NDehY6NHQlKhdqdVbmlmaWVk", "score": 2.2174265385, "dist": 48704.9158425134, "info": "search:ta:826009003971647-GB", "poi": {"name": "Mrh Craigs", "phone": "+(44)-(1786)-448909", "brands": [{"name": "BP"}], "categorySet": [{"id": 7311}], "categories": ["petrol station"], "classifications": [{"code": "PETROL_STATION", "names": [{"nameLocale": "en-US", "name": "petrol station"}]}]}, "address": {"streetName": "Craigs Roundabout", "municipality": "Stirling", "countrySecondarySubdivision": "Stirlingshire", "countrySubdivision": "SCT", "countrySubdivisionName": "Scotland", "postalCode": "FK7", "extendedPostalCode": "FK7 7NU", "countryCode": "GB", "country": "United Kingdom", "countryCodeISO3": "GBR", "freeformAddress": "Craigs Roundabout, Stirling, FK7 7NU", "localName": "Stirling"}, "position": {"lat": 56.11558, "lon": -3.93112}, "viewport": {"topLeftPoint": {"lat": 56.11648, "lon": -3.93273}, "btmRightPoint": {"lat": 56.11468, "lon": -3.92951}}, "entryPoints": [{"type": "main", "position": {"lat": 56.11548, "lon": -3.93184}}]}, "g6JpZK84MjYwMDkwMDQwNDczMTChY6NHQlKhdqdVbmlmaWVk": {"type": "POI", "id": "g6JpZK84MjYwMDkwMDQwNDczMTChY6NHQlKhdqdVbmlmaWVk", "score": 2.2165658474, "dist": 48868.6972513648, "info": "search:ta:826009004047310-GB", "poi": {"name": "Mrh Carluke", "phone": "+(44)-(1555)-751879", "brands": [{"name": "BP"}], "categorySet": [{"id": 7311}], "categories": ["petrol station"], "classifications": [{"code": "PETROL_STATION", "names": [{"nameLocale": "en-US", "name": "petrol station"}]}]}, "address": {"streetNumber": "37", "streetName": "Stewart Street", "municipality": "Carluke", "countrySecondarySubdivision": "Lanarkshire", "countrySubdivision": "SCT", "countrySubdivisionName": "Scotland", "postalCode": "ML8", "extendedPostalCode": "ML8 5DZ", "countryCode": "GB", "country": "United Kingdom", "countryCodeISO3": "GBR", "freeformAddress": "37 Stewart Street, Carluke, ML8 5DZ", "localName": "Carluke"}, "position": {"lat": 55.73863, "lon": -3.84167}, "viewport": {"topLeftPoint": {"lat": 55.74021, "lon": -3.84447}, "btmRightPoint": {"lat": 55.73705, "lon": -3.83887}}, "entryPoints": [{"type": "main", "position": {"lat": 55.73711, "lon": -3.84092}}]}, "g6JpZK84MjYwMDkwMDgyNjEwMTahY6NHQlKhdqdVbmlmaWVk": {"type": "POI", "id": "g6JpZK84MjYwMDkwMDgyNjEwMTahY6NHQlKhdqdVbmlmaWVk", "score": 2.2140936852, "dist": 49347.348959323106, "info": "search:ta:826009008261016-GB", "poi": {"name": "St Johnstone Service Station", "phone": "+(44)-(1738)-443655", "brands": [{"name": "BP"}], "categorySet": [{"id": 7311}], "categories": ["petrol station"], "classifications": [{"code": "PETROL_STATION", "names": [{"nameLocale": "en-US", "name": "petrol station"}]}]}, "address": {"streetNumber": "2", "streetName": "Dunkeld Road", "municipality": "Perth", "countrySecondarySubdivision": "Perthshire", "countrySubdivision": "SCT", "countrySubdivisionName": "Scotland", "postalCode": "PH1", "extendedPostalCode": "PH1 5RG", "countryCode": "GB", "country": "United Kingdom", "countryCodeISO3": "GBR", "freeformAddress": "2 Dunkeld Road, Perth, PH1 5RG", "localName": "Perth"}, "position": {"lat": 56.40003, "lon": -3.43773}, "viewport": {"topLeftPoint": {"lat": 56.40125, "lon": -3.43993}, "btmRightPoint": {"lat": 56.39881, "lon": -3.43553}}, "entryPoints": [{"type": "main", "position": {"lat": 56.40109, "lon": -3.43882}}]}, "g6JpZK84MjYwMDEwMDE2OTcxODWhY6NHQlKhdqdVbmlmaWVk": {"type": "POI", "id": "g6JpZK84MjYwMDEwMDE2OTcxODWhY6NHQlKhdqdVbmlmaWVk", "score": 2.212259531, "dist": 49710.60006607014, "info": "search:ta:826001001697185-GB", "poi": {"name": "Seafar Service Station", "phone": "+(44)-(1236)-795484", "brands": [{"name": "BP"}], "categorySet": [{"id": 7311}], "categories": ["petrol station"], "classifications": [{"code": "PETROL_STATION", "names": [{"nameLocale": "en-US", "name": "petrol station"}]}]}, "address": {"streetName": "Seafar Road", "municipalitySubdivision": "Cumbernauld", "municipality": "Glasgow", "countrySecondarySubdivision": "Lanarkshire", "countrySubdivision": "SCT", "countrySubdivisionName": "Scotland", "postalCode": "G67", "extendedPostalCode": "G67 1", "countryCode": "GB", "country": "United Kingdom", "countryCodeISO3": "GBR", "freeformAddress": "Seafar Road, Glasgow, G67 1", "localName": "Glasgow"}, "position": {"lat": 55.95386, "lon": -3.98353}, "viewport": {"topLeftPoint": {"lat": 55.95476, "lon": -3.98514}, "btmRightPoint": {"lat": 55.95296, "lon": -3.98192}}, "entryPoints": [{"type": "main", "position": {"lat": 55.95399, "lon": -3.98355}}]}, "g6JpZK84MjYwMDkwMDg5ODA1NjKhY6NHQlKhdqdVbmlmaWVk": {"type": "POI", "id": "g6JpZK84MjYwMDkwMDg5ODA1NjKhY6NHQlKhdqdVbmlmaWVk", "score": 2.2107894421, "dist": 50007.04952136472, "info": "search:ta:826009008980562-GB", "poi": {"name": "Colston Sf Connect", "phone": "+(44)-(1236)-760281", "brands": [{"name": "BP"}], "categorySet": [{"id": 7311}], "categories": ["petrol station"], "classifications": [{"code": "PETROL_STATION", "names": [{"nameLocale": "en-US", "name": "petrol station"}]}]}, "address": {"streetNumber": "3", "streetName": "Carlisle Road", "municipality": "Airdrie", "countrySecondarySubdivision": "Lanarkshire", "countrySubdivision": "SCT", "countrySubdivisionName": "Scotland", "postalCode": "ML6", "extendedPostalCode": "ML6 8AB", "countryCode": "GB", "country": "United Kingdom", "countryCodeISO3": "GBR", "freeformAddress": "3 Carlisle Road, Airdrie, ML6 8AB", "localName": "Airdrie"}, "position": {"lat": 55.86671, "lon": -3.96326}, "viewport": {"topLeftPoint": {"lat": 55.86761, "lon": -3.96486}, "btmRightPoint": {"lat": 55.86581, "lon": -3.96166}}, "entryPoints": [{"type": "main", "position": {"lat": 55.86682, "lon": -3.96341}}]}, "g6JpZK84MjYwMDkwMDkwODY3ODmhY6NHQlKhdqdVbmlmaWVk": {"type": "POI", "id": "g6JpZK84MjYwMDkwMDkwODY3ODmhY6NHQlKhdqdVbmlmaWVk", "score": 2.209423542, "dist": 50286.904512588626, "info": "search:ta:826009009086789-GB", "poi": {"name": "Mrh Dukes Spar", "phone": "+(44)-(1236)-779599", "brands": [{"name": "BP"}], "categorySet": [{"id": 7311}], "categories": ["petrol station"], "classifications": [{"code": "PETROL_STATION", "names": [{"nameLocale": "en-US", "name": "petrol station"}]}]}, "address": {"streetNumber": "94", "streetName": "Carlisle Road", "municipality": "Airdrie", "countrySecondarySubdivision": "Lanarkshire", "countrySubdivision": "SCT", "countrySubdivisionName": "Scotland", "postalCode": "ML6", "extendedPostalCode": "ML6 8RA", "countryCode": "GB", "country": "United Kingdom", "countryCodeISO3": "GBR", "freeformAddress": "94 Carlisle Road, Airdrie, ML6 8RA", "localName": "Airdrie"}, "position": {"lat": 55.85997, "lon": -3.96465}, "viewport": {"topLeftPoint": {"lat": 55.86087, "lon": -3.96625}, "btmRightPoint": {"lat": 55.85907, "lon": -3.96305}}, "entryPoints": [{"type": "main", "position": {"lat": 55.86015, "lon": -3.96435}}]}, "g6JpZK84MjYwMDkwMDkyMTg2MjKhY6NHQlKhdqdVbmlmaWVk": {"type": "POI", "id": "g6JpZK84MjYwMDkwMDkyMTg2MjKhY6NHQlKhdqdVbmlmaWVk", "score": 2.2032594681, "dist": 51607.98096709341, "info": "search:ta:826009009218622-GB", "poi": {"name": "Perth Services Sf Connect", "phone": "+(44)-(1738)-587895", "brands": [{"name": "BP"}], "categorySet": [{"id": 7311}], "categories": ["petrol station"], "classifications": [{"code": "PETROL_STATION", "names": [{"nameLocale": "en-US", "name": "petrol station"}]}]}, "address": {"streetName": "The Triangle", "municipality": "Perth", "countrySecondarySubdivision": "Perthshire", "countrySubdivision": "SCT", "countrySubdivisionName": "Scotland", "postalCode": "PH1", "extendedPostalCode": "PH1 3GA", "countryCode": "GB", "country": "United Kingdom", "countryCodeISO3": "GBR", "freeformAddress": "The Triangle, Perth, PH1 3GA", "localName": "Perth"}, "position": {"lat": 56.41698, "lon": -3.46165}, "viewport": {"topLeftPoint": {"lat": 56.41788, "lon": -3.46328}, "btmRightPoint": {"lat": 56.41608, "lon": -3.46002}}, "entryPoints": [{"type": "main", "position": {"lat": 56.41746, "lon": -3.46182}}]}, "g6JpZK84MjYwMDkwMDQ1MDI2ODChY6NHQlKhdqdVbmlmaWVk": {"type": "POI", "id": "g6JpZK84MjYwMDkwMDQ1MDI2ODChY6NHQlKhdqdVbmlmaWVk", "score": 2.2027521133, "dist": 51721.29068101276, "info": "search:ta:826009004502680-GB", "poi": {"name": "Old Toll Filling Station", "phone": "+(44)-(1698)-350354", "brands": [{"name": "BP"}], "categorySet": [{"id": 7311}], "categories": ["petrol station"], "classifications": [{"code": "PETROL_STATION", "names": [{"nameLocale": "en-US", "name": "petrol station"}]}]}, "address": {"streetNumber": "128", "streetName": "Main Street", "municipalitySubdivision": "Overtown", "municipality": "Wishaw", "countrySecondarySubdivision": "Lanarkshire", "countrySubdivision": "SCT", "countrySubdivisionName": "Scotland", "postalCode": "ML2", "extendedPostalCode": "ML2 0QF", "countryCode": "GB", "country": "United Kingdom", "countryCodeISO3": "GBR", "freeformAddress": "128 Main Street, Wishaw, ML2 0QF", "localName": "Wishaw"}, "position": {"lat": 55.75361, "lon": -3.91121}, "viewport": {"topLeftPoint": {"lat": 55.7552, "lon": -3.91404}, "btmRightPoint": {"lat": 55.75202, "lon": -3.90838}}, "entryPoints": [{"type": "main", "position": {"lat": 55.75483, "lon": -3.90939}}]}, "g6JpZK84MjYwMDkwMDQ1NzI2NTChY6NHQlKhdqdVbmlmaWVk": {"type": "POI", "id": "g6JpZK84MjYwMDkwMDQ1NzI2NTChY6NHQlKhdqdVbmlmaWVk", "score": 2.2009055614, "dist": 52140.331208367665, "info": "search:ta:826009004572650-GB", "poi": {"name": "Mrh Wishaw", "phone": "+(44)-(1698)-373712", "brands": [{"name": "BP"}], "categorySet": [{"id": 7311}], "categories": ["petrol station"], "classifications": [{"code": "PETROL_STATION", "names": [{"nameLocale": "en-US", "name": "petrol station"}]}]}, "address": {"streetNumber": "308", "streetName": "Glasgow Road", "municipality": "Wishaw", "countrySecondarySubdivision": "Lanarkshire", "countrySubdivision": "SCT", "countrySubdivisionName": "Scotland", "postalCode": "ML2", "extendedPostalCode": "ML2 0AA", "countryCode": "GB", "country": "United Kingdom", "countryCodeISO3": "GBR", "freeformAddress": "308 Glasgow Road, Wishaw, ML2 0AA", "localName": "Wishaw"}, "position": {"lat": 55.7752, "lon": -3.93889}, "viewport": {"topLeftPoint": {"lat": 55.7761, "lon": -3.94049}, "btmRightPoint": {"lat": 55.7743, "lon": -3.93729}}, "entryPoints": [{"type": "main", "position": {"lat": 55.77492, "lon": -3.93835}}]}, "g6JpZK84MjYwMDkwMDkyNDU4ODOhY6NHQlKhdqdVbmlmaWVk": {"type": "POI", "id": "g6JpZK84MjYwMDkwMDkyNDU4ODOhY6NHQlKhdqdVbmlmaWVk", "score": 2.1992721558, "dist": 52519.830492348905, "info": "search:ta:826009009245883-GB", "poi": {"name": "Craiglinn Sf Connect", "phone": "+(44)-(1236)-739348", "brands": [{"name": "BP"}], "categorySet": [{"id": 7311}], "categories": ["petrol station"], "classifications": [{"code": "PETROL_STATION", "names": [{"nameLocale": "en-US", "name": "petrol station"}]}]}, "address": {"streetName": "Craiglinn Park Road", "municipalitySubdivision": "Cumbernauld", "municipality": "Glasgow", "countrySecondarySubdivision": "Lanarkshire", "countrySubdivision": "SCT", "countrySubdivisionName": "Scotland", "postalCode": "G68", "extendedPostalCode": "G68 9JY", "countryCode": "GB", "country": "United Kingdom", "countryCodeISO3": "GBR", "freeformAddress": "Craiglinn Park Road, Glasgow, G68 9JY", "localName": "Glasgow"}, "position": {"lat": 55.94421, "lon": -4.02754}, "viewport": {"topLeftPoint": {"lat": 55.94511, "lon": -4.02915}, "btmRightPoint": {"lat": 55.94331, "lon": -4.02593}}, "entryPoints": [{"type": "main", "position": {"lat": 55.94377, "lon": -4.02758}}]}, "g6JpZK84MjYwMDkwMDY5Mzk5MTOhY6NHQlKhdqdVbmlmaWVk": {"type": "POI", "id": "g6JpZK84MjYwMDkwMDY5Mzk5MTOhY6NHQlKhdqdVbmlmaWVk", "score": 2.1985759735, "dist": 52684.22405406489, "info": "search:ta:826009006939913-GB", "poi": {"name": "Condorrat Service Station", "phone": "+(44)-(1236)-726853", "brands": [{"name": "BP"}], "categorySet": [{"id": 7311}], "categories": ["petrol station"], "classifications": [{"code": "PETROL_STATION", "names": [{"nameLocale": "en-US", "name": "petrol station"}]}]}, "address": {"streetName": "Main Road", "municipalitySubdivision": "Cumbernauld", "municipality": "Glasgow", "countrySecondarySubdivision": "Lanarkshire", "countrySubdivision": "SCT", "countrySubdivisionName": "Scotland", "postalCode": "G67", "extendedPostalCode": "G67 4EA", "countryCode": "GB", "country": "United Kingdom", "countryCodeISO3": "GBR", "freeformAddress": "Main Road, Glasgow, G67 4EA", "localName": "Glasgow"}, "position": {"lat": 55.93473, "lon": -4.02867}, "viewport": {"topLeftPoint": {"lat": 55.93563, "lon": -4.03028}, "btmRightPoint": {"lat": 55.93383, "lon": -4.02706}}, "entryPoints": [{"type": "main", "position": {"lat": 55.93469, "lon": -4.02857}}]}, "g6JpZK84MjYwMDEwMDAyNTY5ODChY6NHQlKhdqdVbmlmaWVk": {"type": "POI", "id": "g6JpZK84MjYwMDEwMDAyNTY5ODChY6NHQlKhdqdVbmlmaWVk", "score": 2.1954278946, "dist": 53448.86977973908, "info": "search:ta:826001000256980-GB", "poi": {"name": "Cliftonhill Service Station", "phone": "+(44)-(1236)-433242", "brands": [{"name": "BP"}], "categorySet": [{"id": 7311}], "categories": ["petrol station"], "classifications": [{"code": "PETROL_STATION", "names": [{"nameLocale": "en-US", "name": "petrol station"}]}]}, "address": {"streetNumber": "231", "streetName": "Main Street", "municipality": "Coatbridge", "countrySecondarySubdivision": "Lanarkshire", "countrySubdivision": "SCT", "countrySubdivisionName": "Scotland", "postalCode": "ML5", "extendedPostalCode": "ML5 3RB", "countryCode": "GB", "country": "United Kingdom", "countryCodeISO3": "GBR", "freeformAddress": "231 Main Street, Coatbridge, ML5 3RB", "localName": "Coatbridge"}, "position": {"lat": 55.86067, "lon": -4.01746}, "viewport": {"topLeftPoint": {"lat": 55.86185, "lon": -4.01957}, "btmRightPoint": {"lat": 55.85949, "lon": -4.01535}}, "entryPoints": [{"type": "main", "position": {"lat": 55.86077, "lon": -4.01956}}]}, "g6JpZK84MjYwMDkwMDM4NDY4NjmhY6NHQlKhdqdVbmlmaWVk": {"type": "POI", "id": "g6JpZK84MjYwMDkwMDM4NDY4NjmhY6NHQlKhdqdVbmlmaWVk", "score": 2.1927604675, "dist": 54126.26463951991, "info": "search:ta:826009003846869-GB", "poi": {"name": "Bullionfield Sf Connect", "phone": "+(44)-(1382)-561354", "brands": [{"name": "BP"}], "categorySet": [{"id": 7311}], "categories": ["petrol station"], "classifications": [{"code": "PETROL_STATION", "names": [{"nameLocale": "en-US", "name": "petrol station"}]}]}, "address": {"streetName": "A90", "municipalitySubdivision": "Invergowrie", "municipality": "Dundee", "countrySecondarySubdivision": "Angus", "countrySubdivision": "SCT", "countrySubdivisionName": "Scotland", "postalCode": "DD2", "extendedPostalCode": "DD2 5EG", "countryCode": "GB", "country": "United Kingdom", "countryCodeISO3": "GBR", "freeformAddress": "A90, Dundee, DD2 5EG", "localName": "Dundee"}, "position": {"lat": 56.46167, "lon": -3.0737}, "viewport": {"topLeftPoint": {"lat": 56.46257, "lon": -3.07533}, "btmRightPoint": {"lat": 56.46077, "lon": -3.07207}}, "entryPoints": [{"type": "main", "position": {"lat": 56.46192, "lon": -3.07371}}]}, "g6JpZK84MjYwMDkwMDQ1NDI4NTOhY6NHQlKhdqdVbmlmaWVk": {"type": "POI", "id": "g6JpZK84MjYwMDkwMDQ1NDI4NTOhY6NHQlKhdqdVbmlmaWVk", "score": 2.1886582375, "dist": 55228.15358647801, "info": "search:ta:826009004542853-GB", "poi": {"name": "Bank Street Service Station", "phone": "+(44)-(7785)-726737", "brands": [{"name": "BP"}], "categorySet": [{"id": 7311}], "categories": ["petrol station"], "classifications": [{"code": "PETROL_STATION", "names": [{"nameLocale": "en-US", "name": "petrol station"}]}]}, "address": {"streetNumber": "206", "streetName": "Bank Street", "municipality": "Coatbridge", "countrySecondarySubdivision": "Lanarkshire", "countrySubdivision": "SCT", "countrySubdivisionName": "Scotland", "postalCode": "ML5", "extendedPostalCode": "ML5 1EG", "countryCode": "GB", "country": "United Kingdom", "countryCodeISO3": "GBR", "freeformAddress": "206 Bank Street, Coatbridge, ML5 1EG", "localName": "Coatbridge"}, "position": {"lat": 55.85737, "lon": -4.04539}, "viewport": {"topLeftPoint": {"lat": 55.85827, "lon": -4.04699}, "btmRightPoint": {"lat": 55.85647, "lon": -4.04379}}, "entryPoints": [{"type": "main", "position": {"lat": 55.85735, "lon": -4.04452}}]}, "g6JpZK84MjYwMDkwMDMyODY1MzKhY6NHQlKhdqdVbmlmaWVk": {"type": "POI", "id": "g6JpZK84MjYwMDkwMDMyODY1MzKhY6NHQlKhdqdVbmlmaWVk", "score": 2.1851916313, "dist": 56225.05477141316, "info": "search:ta:826009003286532-GB", "poi": {"name": "Kingsway West Sf Connect", "phone": "+(44)-(1382)-622526", "brands": [{"name": "BP"}], "categorySet": [{"id": 7311}], "categories": ["petrol station"], "classifications": [{"code": "PETROL_STATION", "names": [{"nameLocale": "en-US", "name": "petrol station"}]}]}, "address": {"streetName": "Kingsway West", "municipality": "Dundee", "countrySecondarySubdivision": "Angus", "countrySubdivision": "SCT", "countrySubdivisionName": "Scotland", "postalCode": "DD2", "extendedPostalCode": "DD2 4TD", "countryCode": "GB", "country": "United Kingdom", "countryCodeISO3": "GBR", "freeformAddress": "Kingsway West, Dundee, DD2 4TD", "localName": "Dundee"}, "position": {"lat": 56.47751, "lon": -3.03457}, "viewport": {"topLeftPoint": {"lat": 56.47841, "lon": -3.0362}, "btmRightPoint": {"lat": 56.47661, "lon": -3.03294}}, "entryPoints": [{"type": "main", "position": {"lat": 56.47741, "lon": -3.03454}}]}, "g6JpZK84MjYwMDkwMTIxODUyODWhY6NHQlKhdqdVbmlmaWVk": {"type": "POI", "id": "g6JpZK84MjYwMDkwMTIxODUyODWhY6NHQlKhdqdVbmlmaWVk", "score": 2.1838502884, "dist": 56629.11880955684, "info": "search:ta:826009012185285-GB", "poi": {"name": "Lawries Garage", "phone": "+(44)-(1835)-822241", "brands": [{"name": "BP"}], "categorySet": [{"id": 7311}], "categories": ["petrol station"], "classifications": [{"code": "PETROL_STATION", "names": [{"nameLocale": "en-US", "name": "petrol station"}]}]}, "address": {"streetName": "A68", "municipalitySubdivision": "Saint Boswells", "municipality": "Melrose", "countrySecondarySubdivision": "Roxburghshire", "countrySubdivision": "SCT", "countrySubdivisionName": "Scotland", "postalCode": "TD6", "extendedPostalCode": "TD6 0", "countryCode": "GB", "country": "United Kingdom", "countryCodeISO3": "GBR", "freeformAddress": "A68, Melrose, TD6 0", "localName": "Melrose"}, "position": {"lat": 55.56876, "lon": -2.64929}, "viewport": {"topLeftPoint": {"lat": 55.56966, "lon": -2.65088}, "btmRightPoint": {"lat": 55.56786, "lon": -2.6477}}, "entryPoints": [{"type": "main", "position": {"lat": 55.5688, "lon": -2.64921}}]}, "g6JpZK84MjYwMDkwMDQ3NTgxOTWhY6NHQlKhdqdVbmlmaWVk": {"type": "POI", "id": "g6JpZK84MjYwMDkwMDQ3NTgxOTWhY6NHQlKhdqdVbmlmaWVk", "score": 2.1838088036, "dist": 56641.89105737722, "info": "search:ta:826009004758195-GB", "poi": {"name": "Viewpark Service Station", "phone": "+(44)-(1698)-845970", "brands": [{"name": "BP"}], "categorySet": [{"id": 7311}], "categories": ["petrol station"], "classifications": [{"code": "PETROL_STATION", "names": [{"nameLocale": "en-US", "name": "petrol station"}]}]}, "address": {"streetNumber": "783", "streetName": "Old Edinburgh Road", "municipalitySubdivision": "Uddingston", "municipality": "Glasgow", "countrySecondarySubdivision": "Lanarkshire", "countrySubdivision": "SCT", "countrySubdivisionName": "Scotland", "postalCode": "ML4", "extendedPostalCode": "ML4 3HN", "countryCode": "GB", "country": "United Kingdom", "countryCodeISO3": "GBR", "freeformAddress": "783 Old Edinburgh Road, Glasgow, ML4 3HN", "localName": "Glasgow"}, "position": {"lat": 55.82414, "lon": -4.05168}, "viewport": {"topLeftPoint": {"lat": 55.82504, "lon": -4.05328}, "btmRightPoint": {"lat": 55.82324, "lon": -4.05008}}, "entryPoints": [{"type": "main", "position": {"lat": 55.82418, "lon": -4.05278}}]}, "g6JpZK84MjYwMDkwMDM2NjQwMDahY6NHQlKhdqdVbmlmaWVk": {"type": "POI", "id": "g6JpZK84MjYwMDkwMDM2NjQwMDahY6NHQlKhdqdVbmlmaWVk", "score": 2.1812570095, "dist": 57443.48400263481, "info": "search:ta:826009003664006-GB", "poi": {"name": "Braeside Service Station", "phone": "+(44)-(141)-7792019", "brands": [{"name": "BP"}], "categorySet": [{"id": 7311}], "categories": ["petrol station"], "classifications": [{"code": "PETROL_STATION", "names": [{"nameLocale": "en-US", "name": "petrol station"}]}]}, "address": {"streetNumber": "198", "streetName": "Cumbernauld Road", "municipalitySubdivision": "Chryston", "municipality": "Glasgow", "countrySecondarySubdivision": "Lanarkshire", "countrySubdivision": "SCT", "countrySubdivisionName": "Scotland", "postalCode": "G69", "extendedPostalCode": "G69 9ND", "countryCode": "GB", "country": "United Kingdom", "countryCodeISO3": "GBR", "freeformAddress": "198 Cumbernauld Road, Glasgow, G69 9ND", "localName": "Glasgow"}, "position": {"lat": 55.90238, "lon": -4.09825}, "viewport": {"topLeftPoint": {"lat": 55.90393, "lon": -4.10102}, "btmRightPoint": {"lat": 55.90083, "lon": -4.09548}}, "entryPoints": [{"type": "main", "position": {"lat": 55.90167, "lon": -4.10071}}]}, "g6JpZK84MjYwMDkwMDg5NzI5OTmhY6NHQlKhdqdVbmlmaWVk": {"type": "POI", "id": "g6JpZK84MjYwMDkwMDg5NzI5OTmhY6NHQlKhdqdVbmlmaWVk", "score": 2.1765861511, "dist": 59037.52949054157, "info": "search:ta:826009008972999-GB", "poi": {"name": "Mrh Burnbank", "phone": "+(44)-(1698)-284054", "brands": [{"name": "BP"}], "categorySet": [{"id": 7311}], "categories": ["petrol station"], "classifications": [{"code": "PETROL_STATION", "names": [{"nameLocale": "en-US", "name": "petrol station"}]}]}, "address": {"streetNumber": "91", "streetName": "Burnbank Road", "municipality": "Hamilton", "countrySecondarySubdivision": "Lanarkshire", "countrySubdivision": "SCT", "countrySubdivisionName": "Scotland", "postalCode": "ML3", "extendedPostalCode": "ML3 9AN", "countryCode": "GB", "country": "United Kingdom", "countryCodeISO3": "GBR", "freeformAddress": "91 Burnbank Road, Hamilton, ML3 9AN", "localName": "Hamilton"}, "position": {"lat": 55.78008, "lon": -4.06365}, "viewport": {"topLeftPoint": {"lat": 55.78098, "lon": -4.06525}, "btmRightPoint": {"lat": 55.77918, "lon": -4.06205}}, "entryPoints": [{"type": "main", "position": {"lat": 55.78034, "lon": -4.06411}}]}, "g6JpZK84MjYwMDkwMDkwMTg3MjWhY6NHQlKhdqdVbmlmaWVk": {"type": "POI", "id": "g6JpZK84MjYwMDkwMDkwMTg3MjWhY6NHQlKhdqdVbmlmaWVk", "score": 2.1740431786, "dist": 61541.143811040325, "info": "search:ta:826009009018725-GB", "poi": {"name": "Mrh Sandymount", "phone": "+(44)-(141)-7786915", "brands": [{"name": "BP"}], "categorySet": [{"id": 7311}], "categories": ["petrol station"], "classifications": [{"code": "PETROL_STATION", "names": [{"nameLocale": "en-US", "name": "petrol station"}]}]}, "address": {"streetNumber": "23", "streetName": "Baillieston Road", "municipality": "Glasgow", "countrySecondarySubdivision": "Lanarkshire", "countrySubdivision": "SCT", "countrySubdivisionName": "Scotland", "postalCode": "G32", "extendedPostalCode": "G32 0QJ", "countryCode": "GB", "country": "United Kingdom", "countryCodeISO3": "GBR", "freeformAddress": "23 Baillieston Road, Glasgow, G32 0QJ", "localName": "Glasgow"}, "position": {"lat": 55.8498, "lon": -4.14631}, "viewport": {"topLeftPoint": {"lat": 55.8507, "lon": -4.14791}, "btmRightPoint": {"lat": 55.8489, "lon": -4.14471}}, "entryPoints": [{"type": "main", "position": {"lat": 55.84957, "lon": -4.14548}}]}, "g6JpZK84MjYwMDkwMDYyOTI3ODmhY6NHQlKhdqdVbmlmaWVk": {"type": "POI", "id": "g6JpZK84MjYwMDkwMDYyOTI3ODmhY6NHQlKhdqdVbmlmaWVk", "score": 2.1734895706, "dist": 64506.312519819956, "info": "search:ta:826009006292789-GB", "poi": {"name": "Broomfield Service Station", "phone": "+(44)-(141)-5581476", "brands": [{"name": "BP"}], "categorySet": [{"id": 7311}], "categories": ["petrol station"], "classifications": [{"code": "PETROL_STATION", "names": [{"nameLocale": "en-US", "name": "petrol station"}]}]}, "address": {"streetNumber": "572", "streetName": "Broomfield Road", "municipality": "Glasgow", "countrySecondarySubdivision": "Lanarkshire", "countrySubdivision": "SCT", "countrySubdivisionName": "Scotland", "postalCode": "G21", "extendedPostalCode": "G21 3HW", "countryCode": "GB", "country": "United Kingdom", "countryCodeISO3": "GBR", "freeformAddress": "572 Broomfield Road, Glasgow, G21 3HW", "localName": "Glasgow"}, "position": {"lat": 55.882, "lon": -4.20702}, "viewport": {"topLeftPoint": {"lat": 55.8829, "lon": -4.20862}, "btmRightPoint": {"lat": 55.8811, "lon": -4.20542}}, "entryPoints": [{"type": "main", "position": {"lat": 55.88198, "lon": -4.20705}}]}, "g6JpZK84MjYwMDkwMDkwMjkzMzWhY6NHQlKhdqdVbmlmaWVk": {"type": "POI", "id": "g6JpZK84MjYwMDkwMDkwMjkzMzWhY6NHQlKhdqdVbmlmaWVk", "score": 2.1733338833, "dist": 65350.45331225224, "info": "search:ta:826009009029335-GB", "poi": {"name": "Kingsway Service Station", "brands": [{"name": "BP"}], "categorySet": [{"id": 7311}], "categories": ["petrol station"], "classifications": [{"code": "PETROL_STATION", "names": [{"nameLocale": "en-US", "name": "petrol station"}]}]}, "address": {"streetName": "Kingsway", "municipalitySubdivision": "East Kilbride", "municipality": "Glasgow", "countrySecondarySubdivision": "Lanarkshire", "countrySubdivision": "SCT", "countrySubdivisionName": "Scotland", "postalCode": "G74", "extendedPostalCode": "G74 3DS", "countryCode": "GB", "country": "United Kingdom", "countryCodeISO3": "GBR", "freeformAddress": "Kingsway, Glasgow, G74 3DS", "localName": "Glasgow"}, "position": {"lat": 55.7677, "lon": -4.16359}, "viewport": {"topLeftPoint": {"lat": 55.76878, "lon": -4.16551}, "btmRightPoint": {"lat": 55.76662, "lon": -4.16167}}, "entryPoints": [{"type": "main", "position": {"lat": 55.76793, "lon": -4.16547}}]}, "g6JpZK84MjYwMDkwMDg5NzUxNDWhY6NHQlKhdqdVbmlmaWVk": {"type": "POI", "id": "g6JpZK84MjYwMDkwMDg5NzUxNDWhY6NHQlKhdqdVbmlmaWVk", "score": 2.1732854843, "dist": 65613.78840551736, "info": "search:ta:826009008975145-GB", "poi": {"name": "Mrh Old Coach Road Spar", "phone": "+(44)-(1355)-237407", "brands": [{"name": "BP"}], "categorySet": [{"id": 7311}], "categories": ["petrol station"], "classifications": [{"code": "PETROL_STATION", "names": [{"nameLocale": "en-US", "name": "petrol station"}]}]}, "address": {"streetNumber": "104", "streetName": "Old Coach Road", "municipalitySubdivision": "East Kilbride", "municipality": "Glasgow", "countrySecondarySubdivision": "Lanarkshire", "countrySubdivision": "SCT", "countrySubdivisionName": "Scotland", "postalCode": "G74", "extendedPostalCode": "G74 4AT", "countryCode": "GB", "country": "United Kingdom", "countryCodeISO3": "GBR", "freeformAddress": "104 Old Coach Road, Glasgow, G74 4AT", "localName": "Glasgow"}, "position": {"lat": 55.77309, "lon": -4.17181}, "viewport": {"topLeftPoint": {"lat": 55.77399, "lon": -4.17341}, "btmRightPoint": {"lat": 55.77219, "lon": -4.17021}}, "entryPoints": [{"type": "main", "position": {"lat": 55.77305, "lon": -4.1723}}]}, "g6JpZK84MjYwMDkwMDgwMDE1MzOhY6NHQlKhdqdVbmlmaWVk": {"type": "POI", "id": "g6JpZK84MjYwMDkwMDgwMDE1MzOhY6NHQlKhdqdVbmlmaWVk", "score": 2.1732635498, "dist": 65733.86996970639, "info": "search:ta:826009008001533-GB", "poi": {"name": "Craigpark Service Station", "phone": "+(44)-(141)-5513490", "brands": [{"name": "BP"}], "categorySet": [{"id": 7311}], "categories": ["petrol station"], "classifications": [{"code": "PETROL_STATION", "names": [{"nameLocale": "en-US", "name": "petrol station"}]}]}, "address": {"streetNumber": "432", "streetName": "Alexandra Parade", "municipality": "Glasgow", "countrySecondarySubdivision": "Lanarkshire", "countrySubdivision": "SCT", "countrySubdivisionName": "Scotland", "postalCode": "G31", "extendedPostalCode": "G31 3AA", "countryCode": "GB", "country": "United Kingdom", "countryCodeISO3": "GBR", "freeformAddress": "432 Alexandra Parade, Glasgow, G31 3AA", "localName": "Glasgow"}, "position": {"lat": 55.864, "lon": -4.22091}, "viewport": {"topLeftPoint": {"lat": 55.8649, "lon": -4.22251}, "btmRightPoint": {"lat": 55.8631, "lon": -4.21931}}, "entryPoints": [{"type": "main", "position": {"lat": 55.8643, "lon": -4.22182}}]}, "g6JpZK84MjYwMDkwMDg5OTMyMjmhY6NHQlKhdqdVbmlmaWVk": {"type": "POI", "id": "g6JpZK84MjYwMDkwMDg5OTMyMjmhY6NHQlKhdqdVbmlmaWVk", "score": 2.1728703976, "dist": 67893.6108425309, "info": "search:ta:826009008993229-GB", "poi": {"name": "Queensway North Sf Connect", "phone": "+(44)-(1355)-571562", "brands": [{"name": "BP"}], "categorySet": [{"id": 7311}], "categories": ["petrol station"], "classifications": [{"code": "PETROL_STATION", "names": [{"nameLocale": "en-US", "name": "petrol station"}]}]}, "address": {"streetName": "Queensway", "municipalitySubdivision": "East Kilbride", "municipality": "Glasgow", "countrySecondarySubdivision": "Lanarkshire", "countrySubdivision": "SCT", "countrySubdivisionName": "Scotland", "postalCode": "G74", "extendedPostalCode": "G74 1HE", "countryCode": "GB", "country": "United Kingdom", "countryCodeISO3": "GBR", "freeformAddress": "Queensway, Glasgow, G74 1HE", "localName": "Glasgow"}, "position": {"lat": 55.76451, "lon": -4.205}, "viewport": {"topLeftPoint": {"lat": 55.76541, "lon": -4.2066}, "btmRightPoint": {"lat": 55.76361, "lon": -4.2034}}, "entryPoints": [{"type": "main", "position": {"lat": 55.76414, "lon": -4.20523}}]}, "g6JpZK84MjYwMDkwMDU5MDMzOTihY6NHQlKhdqdVbmlmaWVk": {"type": "POI", "id": "g6JpZK84MjYwMDkwMDU5MDMzOTihY6NHQlKhdqdVbmlmaWVk", "score": 2.1727390289, "dist": 68622.06796324335, "info": "search:ta:826009005903398-GB", "poi": {"name": "Elmbank Service Station", "phone": "+(44)-(141)-2216803", "brands": [{"name": "BP"}], "categorySet": [{"id": 7311}], "categories": ["petrol station"], "classifications": [{"code": "PETROL_STATION", "names": [{"nameLocale": "en-US", "name": "petrol station"}]}]}, "address": {"streetNumber": "41", "streetName": "Elmbank Street", "municipality": "Glasgow", "countrySecondarySubdivision": "Lanarkshire", "countrySubdivision": "SCT", "countrySubdivisionName": "Scotland", "postalCode": "G2", "extendedPostalCode": "G2 4PG", "countryCode": "GB", "country": "United Kingdom", "countryCodeISO3": "GBR", "freeformAddress": "41 Elmbank Street, Glasgow, G2 4PG", "localName": "Glasgow"}, "position": {"lat": 55.8646, "lon": -4.26834}, "viewport": {"topLeftPoint": {"lat": 55.8655, "lon": -4.26994}, "btmRightPoint": {"lat": 55.8637, "lon": -4.26674}}, "entryPoints": [{"type": "main", "position": {"lat": 55.86493, "lon": -4.26818}}], "dataSources": {"poiDetails": [{"id": "Rm91cnNxdWFyZTo0ZTA4Y2Q2ZGZhNzY3NjM3ZmQzMzEzMGQ=", "sourceName": "Foursquare"}]}}, "g6JpZK84MjYwMDkwMDkwNjg4NjihY6NHQlKhdqdVbmlmaWVk": {"type": "POI", "id": "g6JpZK84MjYwMDkwMDkwNjg4NjihY6NHQlKhdqdVbmlmaWVk", "score": 2.1725194454, "dist": 69848.99529399647, "info": "search:ta:826009009068868-GB", "poi": {"name": "Pollokshaws Sf Connect", "phone": "+(44)-(141)-6327984", "brands": [{"name": "BP"}], "categorySet": [{"id": 7311}], "categories": ["petrol station"], "classifications": [{"code": "PETROL_STATION", "names": [{"nameLocale": "en-US", "name": "petrol station"}]}]}, "address": {"streetNumber": "890", "streetName": "Pollokshaws Road", "municipality": "Glasgow", "countrySecondarySubdivision": "Lanarkshire", "countrySubdivision": "SCT", "countrySubdivisionName": "Scotland", "postalCode": "G41", "extendedPostalCode": "G41 2ET", "countryCode": "GB", "country": "United Kingdom", "countryCodeISO3": "GBR", "freeformAddress": "890 Pollokshaws Road, Glasgow, G41 2ET", "localName": "Glasgow"}, "position": {"lat": 55.8334, "lon": -4.27616}, "viewport": {"topLeftPoint": {"lat": 55.8343, "lon": -4.27776}, "btmRightPoint": {"lat": 55.8325, "lon": -4.27456}}, "entryPoints": [{"type": "main", "position": {"lat": 55.83376, "lon": -4.27511}}]}, "g6JpZK84MjYwMDkwMDkyMjQ2MjKhY6NHQlKhdqdVbmlmaWVk": {"type": "POI", "id": "g6JpZK84MjYwMDkwMDkyMjQ2MjKhY6NHQlKhdqdVbmlmaWVk", "score": 2.1723530293, "dist": 70782.42431209538, "info": "search:ta:826009009224622-GB", "poi": {"name": "Clarkston Service Station", "phone": "+(44)-(141)-6331896", "brands": [{"name": "BP"}], "categorySet": [{"id": 7311}], "categories": ["petrol station"], "classifications": [{"code": "PETROL_STATION", "names": [{"nameLocale": "en-US", "name": "petrol station"}]}]}, "address": {"streetNumber": "690", "streetName": "Clarkston Road", "municipality": "Glasgow", "countrySecondarySubdivision": "Lanarkshire", "countrySubdivision": "SCT", "countrySubdivisionName": "Scotland", "postalCode": "G44", "extendedPostalCode": "G44 3UZ", "countryCode": "GB", "country": "United Kingdom", "countryCodeISO3": "GBR", "freeformAddress": "690 Clarkston Road, Glasgow, G44 3UZ", "localName": "Glasgow"}, "position": {"lat": 55.79693, "lon": -4.27371}, "viewport": {"topLeftPoint": {"lat": 55.79783, "lon": -4.27531}, "btmRightPoint": {"lat": 55.79603, "lon": -4.27211}}, "entryPoints": [{"type": "main", "position": {"lat": 55.79765, "lon": -4.27309}}]}, "g6JpZK84MjYwMDkwMDkyMTAwNzmhY6NHQlKhdqdVbmlmaWVk": {"type": "POI", "id": "g6JpZK84MjYwMDkwMDkyMTAwNzmhY6NHQlKhdqdVbmlmaWVk", "score": 2.172342062, "dist": 70844.33550968814, "info": "search:ta:826009009210079-GB", "poi": {"name": "West End Sf Connect", "phone": "+(44)-(141)-3394728", "brands": [{"name": "BP"}], "categorySet": [{"id": 7311}], "categories": ["petrol station"], "classifications": [{"code": "PETROL_STATION", "names": [{"nameLocale": "en-US", "name": "petrol station"}]}]}, "address": {"streetNumber": "1057", "streetName": "Great Western Road", "municipality": "Glasgow", "countrySecondarySubdivision": "Lanarkshire", "countrySubdivision": "SCT", "countrySubdivisionName": "Scotland", "postalCode": "G12", "extendedPostalCode": "G12 0NR", "countryCode": "GB", "country": "United Kingdom", "countryCodeISO3": "GBR", "freeformAddress": "1057 Great Western Road, Glasgow, G12 0NR", "localName": "Glasgow"}, "position": {"lat": 55.8847, "lon": -4.31086}, "viewport": {"topLeftPoint": {"lat": 55.8862, "lon": -4.31354}, "btmRightPoint": {"lat": 55.8832, "lon": -4.30818}}, "entryPoints": [{"type": "main", "position": {"lat": 55.88417, "lon": -4.30835}}]}, "g6JpZK84MjYwMDkwMDY5Mzk1MjShY6NHQlKhdqdVbmlmaWVk": {"type": "POI", "id": "g6JpZK84MjYwMDkwMDY5Mzk1MjShY6NHQlKhdqdVbmlmaWVk", "score": 2.1723327637, "dist": 70898.77116026495, "info": "search:ta:826009006939524-GB", "poi": {"name": "Hillfoot Autos", "phone": "+(44)-(141)-9420240", "brands": [{"name": "BP"}], "categorySet": [{"id": 7311}], "categories": ["petrol station"], "classifications": [{"code": "PETROL_STATION", "names": [{"nameLocale": "en-US", "name": "petrol station"}]}]}, "address": {"streetNumber": "145-147", "streetName": "Milngavie Road", "municipalitySubdivision": "Bearsden", "municipality": "Glasgow", "countrySecondarySubdivision": "Lanarkshire", "countrySubdivision": "SCT", "countrySubdivisionName": "Scotland", "postalCode": "G61", "extendedPostalCode": "G61 3DY", "countryCode": "GB", "country": "United Kingdom", "countryCodeISO3": "GBR", "freeformAddress": "145-147 Milngavie Road, Glasgow, G61 3DY", "localName": "Glasgow"}, "position": {"lat": 55.92086, "lon": -4.32004}, "viewport": {"topLeftPoint": {"lat": 55.92176, "lon": -4.32164}, "btmRightPoint": {"lat": 55.91996, "lon": -4.31844}}, "entryPoints": [{"type": "main", "position": {"lat": 55.9212, "lon": -4.31944}}]}, "g6JpZK84MjYwMDkwMDkxMzM5MTehY6NHQlKhdqdVbmlmaWVk": {"type": "POI", "id": "g6JpZK84MjYwMDkwMDkxMzM5MTehY6NHQlKhdqdVbmlmaWVk", "score": 2.1723012924, "dist": 71076.2141760161, "info": "search:ta:826009009133917-GB", "poi": {"name": "Canniesburn Sf Connect", "phone": "+(44)-(141)-9429309", "brands": [{"name": "BP"}], "categorySet": [{"id": 7311}], "categories": ["petrol station"], "classifications": [{"code": "PETROL_STATION", "names": [{"nameLocale": "en-US", "name": "petrol station"}]}]}, "address": {"streetNumber": "3", "streetName": "Maryhill Road", "municipalitySubdivision": "Bearsden", "municipality": "Glasgow", "countrySecondarySubdivision": "Lanarkshire", "countrySubdivision": "SCT", "countrySubdivisionName": "Scotland", "postalCode": "G61", "extendedPostalCode": "G61 1QP", "countryCode": "GB", "country": "United Kingdom", "countryCodeISO3": "GBR", "freeformAddress": "3 Maryhill Road, Glasgow, G61 1QP", "localName": "Glasgow"}, "position": {"lat": 55.90992, "lon": -4.32079}, "viewport": {"topLeftPoint": {"lat": 55.91082, "lon": -4.32239}, "btmRightPoint": {"lat": 55.90902, "lon": -4.31919}}, "entryPoints": [{"type": "main", "position": {"lat": 55.90955, "lon": -4.32058}}]}, "g6JpZK84MjYwMDkwMDk2MTA0OTShY6NHQlKhdqdVbmlmaWVk": {"type": "POI", "id": "g6JpZK84MjYwMDkwMDk2MTA0OTShY6NHQlKhdqdVbmlmaWVk", "score": 2.1722781658, "dist": 71206.43955234854, "info": "search:ta:826009009610494-GB", "poi": {"name": "Castlebank Service Station", "phone": "+(44)-(141)-3372529", "brands": [{"name": "BP"}], "categorySet": [{"id": 7311}], "categories": ["petrol station"], "classifications": [{"code": "PETROL_STATION", "names": [{"nameLocale": "en-US", "name": "petrol station"}]}]}, "address": {"streetNumber": "210", "streetName": "Castlebank Street", "municipality": "Glasgow", "countrySecondarySubdivision": "Lanarkshire", "countrySubdivision": "SCT", "countrySubdivisionName": "Scotland", "postalCode": "G11", "extendedPostalCode": "G11 6", "countryCode": "GB", "country": "United Kingdom", "countryCodeISO3": "GBR", "freeformAddress": "210 Castlebank Street, Glasgow, G11 6", "localName": "Glasgow"}, "position": {"lat": 55.86813, "lon": -4.3117}, "viewport": {"topLeftPoint": {"lat": 55.86905, "lon": -4.31335}, "btmRightPoint": {"lat": 55.86721, "lon": -4.31005}}, "entryPoints": [{"type": "main", "position": {"lat": 55.86826, "lon": -4.31333}}]}, "g6JpZK84MjYwMDkwMDkxMTEwMjihY6NHQlKhdqdVbmlmaWVk": {"type": "POI", "id": "g6JpZK84MjYwMDkwMDkxMTEwMjihY6NHQlKhdqdVbmlmaWVk", "score": 2.1722486019, "dist": 71373.13800152164, "info": "search:ta:826009009111028-GB", "poi": {"name": "Autoport Service Station", "phone": "+(44)-(141)-2584646", "brands": [{"name": "BP"}], "categorySet": [{"id": 7311}], "categories": ["petrol station"], "classifications": [{"code": "PETROL_STATION", "names": [{"nameLocale": "en-US", "name": "petrol station"}]}]}, "address": {"streetNumber": "675", "streetName": "Paisley Road West", "municipality": "Glasgow", "countrySecondarySubdivision": "Lanarkshire", "countrySubdivision": "SCT", "countrySubdivisionName": "Scotland", "postalCode": "G51", "extendedPostalCode": "G51 1RP", "countryCode": "GB", "country": "United Kingdom", "countryCodeISO3": "GBR", "freeformAddress": "675 Paisley Road West, Glasgow, G51 1RP", "localName": "Glasgow"}, "position": {"lat": 55.85007, "lon": -4.30803}, "viewport": {"topLeftPoint": {"lat": 55.85097, "lon": -4.30963}, "btmRightPoint": {"lat": 55.84917, "lon": -4.30643}}, "entryPoints": [{"type": "main", "position": {"lat": 55.8501, "lon": -4.30878}}]}, "g6JpZK84MjYwMDkwMDkxNzk2MDihY6NHQlKhdqdVbmlmaWVk": {"type": "POI", "id": "g6JpZK84MjYwMDkwMDkxNzk2MDihY6NHQlKhdqdVbmlmaWVk", "score": 2.1722297668, "dist": 71480.05044956766, "info": "search:ta:826009009179608-GB", "poi": {"name": "Mrh Drumby", "phone": "+(44)-(141)-6387924", "brands": [{"name": "BP"}], "categorySet": [{"id": 7311}], "categories": ["petrol station"], "classifications": [{"code": "PETROL_STATION", "names": [{"nameLocale": "en-US", "name": "petrol station"}]}]}, "address": {"streetNumber": "91", "streetName": "Eastwoodmains Road", "municipalitySubdivision": "Clarkston", "municipality": "Glasgow", "countrySecondarySubdivision": "Lanarkshire", "countrySubdivision": "SCT", "countrySubdivisionName": "Scotland", "postalCode": "G76", "extendedPostalCode": "G76 7HG", "countryCode": "GB", "country": "United Kingdom", "countryCodeISO3": "GBR", "freeformAddress": "91 Eastwoodmains Road, Glasgow, G76 7HG", "localName": "Glasgow"}, "position": {"lat": 55.7926, "lon": -4.28301}, "viewport": {"topLeftPoint": {"lat": 55.7935, "lon": -4.28461}, "btmRightPoint": {"lat": 55.7917, "lon": -4.28141}}, "entryPoints": [{"type": "main", "position": {"lat": 55.79245, "lon": -4.28324}}]}, "g6JpZK84MjYwMDkwMzA1NDcxOTehY6NHQlKhdqdVbmlmaWVk": {"type": "POI", "id": "g6JpZK84MjYwMDkwMzA1NDcxOTehY6NHQlKhdqdVbmlmaWVk", "score": 2.1721634865, "dist": 71854.98119741713, "info": "search:ta:826009030547197-GB", "poi": {"name": "Victoria Park Service Station", "phone": "+(44)-(141)-9548095", "brands": [{"name": "BP"}], "categorySet": [{"id": 7311}], "categories": ["petrol station"], "classifications": [{"code": "PETROL_STATION", "names": [{"nameLocale": "en-US", "name": "petrol station"}]}]}, "address": {"streetNumber": "501", "streetName": "Crow Road", "municipality": "Glasgow", "countrySecondarySubdivision": "Lanarkshire", "countrySubdivision": "SCT", "countrySubdivisionName": "Scotland", "postalCode": "G11", "extendedPostalCode": "G11 7DW", "countryCode": "GB", "country": "United Kingdom", "countryCodeISO3": "GBR", "freeformAddress": "501 Crow Road, Glasgow, G11 7DW", "localName": "Glasgow"}, "position": {"lat": 55.8822, "lon": -4.32656}, "viewport": {"topLeftPoint": {"lat": 55.8831, "lon": -4.32816}, "btmRightPoint": {"lat": 55.8813, "lon": -4.32496}}, "entryPoints": [{"type": "main", "position": {"lat": 55.88223, "lon": -4.32619}}]}, "g6JpZK84MjYwMDkwMDM2ODA1MDmhY6NHQlKhdqdVbmlmaWVk": {"type": "POI", "id": "g6JpZK84MjYwMDkwMDM2ODA1MDmhY6NHQlKhdqdVbmlmaWVk", "score": 2.1720924377, "dist": 72259.20619941865, "info": "search:ta:826009003680509-GB", "poi": {"name": "Bearsden Sf Connect", "phone": "+(44)-(141)-9433110", "brands": [{"name": "BP"}], "categorySet": [{"id": 7311}], "categories": ["petrol station"], "classifications": [{"code": "PETROL_STATION", "names": [{"nameLocale": "en-US", "name": "petrol station"}]}]}, "address": {"streetName": "Stockiemuir Road", "municipalitySubdivision": "Bearsden", "municipality": "Glasgow", "countrySecondarySubdivision": "Lanarkshire", "countrySubdivision": "SCT", "countrySubdivisionName": "Scotland", "postalCode": "G61", "extendedPostalCode": "G61 4", "countryCode": "GB", "country": "United Kingdom", "countryCodeISO3": "GBR", "freeformAddress": "Stockiemuir Road, Glasgow, G61 4", "localName": "Glasgow"}, "position": {"lat": 55.93434, "lon": -4.34409}, "viewport": {"topLeftPoint": {"lat": 55.93524, "lon": -4.3457}, "btmRightPoint": {"lat": 55.93344, "lon": -4.34248}}, "entryPoints": [{"type": "main", "position": {"lat": 55.93442, "lon": -4.34383}}]}, "g6JpZK84MjYwMDkwMDM1MTE1MTKhY6NHQlKhdqdVbmlmaWVk": {"type": "POI", "id": "g6JpZK84MjYwMDkwMDM1MTE1MTKhY6NHQlKhdqdVbmlmaWVk", "score": 2.1720890999, "dist": 72278.53997645692, "info": "search:ta:826009003511512-GB", "poi": {"name": "Shieldhall Service Station", "phone": "+(44)-(141)-4452177", "brands": [{"name": "BP"}], "categorySet": [{"id": 7311}], "categories": ["petrol station"], "classifications": [{"code": "PETROL_STATION", "names": [{"nameLocale": "en-US", "name": "petrol station"}]}]}, "address": {"streetNumber": "31", "streetName": "Shieldhall Road", "municipality": "Glasgow", "countrySecondarySubdivision": "Lanarkshire", "countrySubdivision": "SCT", "countrySubdivisionName": "Scotland", "postalCode": "G51", "extendedPostalCode": "G51 4UA", "countryCode": "GB", "country": "United Kingdom", "countryCodeISO3": "GBR", "freeformAddress": "31 Shieldhall Road, Glasgow, G51 4UA", "localName": "Glasgow"}, "position": {"lat": 55.85408, "lon": -4.32434}, "viewport": {"topLeftPoint": {"lat": 55.85498, "lon": -4.32594}, "btmRightPoint": {"lat": 55.85318, "lon": -4.32274}}, "entryPoints": [{"type": "main", "position": {"lat": 55.85455, "lon": -4.32574}}]}, "g6JpZK84MjYwMDkwMDg5NTkwNDOhY6NHQlKhdqdVbmlmaWVk": {"type": "POI", "id": "g6JpZK84MjYwMDkwMDg5NTkwNDOhY6NHQlKhdqdVbmlmaWVk", "score": 2.1720612049, "dist": 72436.52869445221, "info": "search:ta:826009008959043-GB", "poi": {"name": "Seven Sisters Service Station", "phone": "+(44)-(141)-6327777", "brands": [{"name": "BP"}], "categorySet": [{"id": 7311}], "categories": ["petrol station"], "classifications": [{"code": "PETROL_STATION", "names": [{"nameLocale": "en-US", "name": "petrol station"}]}]}, "address": {"streetNumber": "231", "streetName": "Thornliebank Road", "municipalitySubdivision": "Thornliebank", "municipality": "Glasgow", "countrySecondarySubdivision": "Lanarkshire", "countrySubdivision": "SCT", "countrySubdivisionName": "Scotland", "postalCode": "G46", "extendedPostalCode": "G46 7RG", "countryCode": "GB", "country": "United Kingdom", "countryCodeISO3": "GBR", "freeformAddress": "231 Thornliebank Road, Glasgow, G46 7RG", "localName": "Glasgow"}, "position": {"lat": 55.81245, "lon": -4.30927}, "viewport": {"topLeftPoint": {"lat": 55.81335, "lon": -4.31087}, "btmRightPoint": {"lat": 55.81155, "lon": -4.30767}}, "entryPoints": [{"type": "main", "position": {"lat": 55.81254, "lon": -4.3093}}]}, "g6JpZK84MjYwMDEwMDAwNjI0NjmhY6NHQlKhdqdVbmlmaWVk": {"type": "POI", "id": "g6JpZK84MjYwMDEwMDAwNjI0NjmhY6NHQlKhdqdVbmlmaWVk", "score": 2.1719603539, "dist": 73013.74709253902, "info": "search:ta:826001000062469-GB", "poi": {"name": "Newton Mearns Service Station", "phone": "+(44)-(141)-6390316", "brands": [{"name": "BP"}], "categorySet": [{"id": 7311}], "categories": ["petrol station"], "classifications": [{"code": "PETROL_STATION", "names": [{"nameLocale": "en-US", "name": "petrol station"}]}]}, "address": {"streetNumber": "172", "streetName": "Mearns Road", "municipalitySubdivision": "Newton Mearns", "municipality": "Glasgow", "countrySecondarySubdivision": "Lanarkshire", "countrySubdivision": "SCT", "countrySubdivisionName": "Scotland", "postalCode": "G77", "extendedPostalCode": "G77 5EU", "countryCode": "GB", "country": "United Kingdom", "countryCodeISO3": "GBR", "freeformAddress": "172 Mearns Road, Glasgow, G77 5EU", "localName": "Glasgow"}, "position": {"lat": 55.7813, "lon": -4.30236}, "viewport": {"topLeftPoint": {"lat": 55.7822, "lon": -4.30396}, "btmRightPoint": {"lat": 55.7804, "lon": -4.30076}}, "entryPoints": [{"type": "main", "position": {"lat": 55.78073, "lon": -4.30365}}]}, "g6JpZK84MjYwMDkwMDk1Nzk2MTOhY6NHQlKhdqdVbmlmaWVk": {"type": "POI", "id": "g6JpZK84MjYwMDkwMDk1Nzk2MTOhY6NHQlKhdqdVbmlmaWVk", "score": 2.1717743874, "dist": 74081.14847077723, "info": "search:ta:826009009579613-GB", "poi": {"name": "Sunningdale Sf Connect", "phone": "+(44)-(141)-6391173", "brands": [{"name": "BP"}], "categorySet": [{"id": 7311}], "categories": ["petrol station"], "classifications": [{"code": "PETROL_STATION", "names": [{"nameLocale": "en-US", "name": "petrol station"}]}]}, "address": {"streetName": "Ayr Road", "municipalitySubdivision": "Newton Mearns", "municipality": "Glasgow", "countrySecondarySubdivision": "Lanarkshire", "countrySubdivision": "SCT", "countrySubdivisionName": "Scotland", "postalCode": "G77", "extendedPostalCode": "G77 6EE", "countryCode": "GB", "country": "United Kingdom", "countryCodeISO3": "GBR", "freeformAddress": "Ayr Road, Glasgow, G77 6EE", "localName": "Glasgow"}, "position": {"lat": 55.7797, "lon": -4.31938}, "viewport": {"topLeftPoint": {"lat": 55.7806, "lon": -4.32098}, "btmRightPoint": {"lat": 55.7788, "lon": -4.31778}}, "entryPoints": [{"type": "main", "position": {"lat": 55.77977, "lon": -4.31955}}]}, "g6JpZK84MjYwMDkwMDMzNjAyNzahY6NHQlKhdqdVbmlmaWVk": {"type": "POI", "id": "g6JpZK84MjYwMDkwMDMzNjAyNzahY6NHQlKhdqdVbmlmaWVk", "score": 2.1715481281, "dist": 75389.79232591402, "info": "search:ta:826009003360276-GB", "poi": {"name": "Clydebank Filling Station", "phone": "+(44)-(141)-9527552", "brands": [{"name": "BP"}], "categorySet": [{"id": 7311}], "categories": ["petrol station"], "classifications": [{"code": "PETROL_STATION", "names": [{"nameLocale": "en-US", "name": "petrol station"}]}]}, "address": {"streetNumber": "610", "streetName": "Glasgow Road", "municipality": "Clydebank", "countrySecondarySubdivision": "Dunbartonshire", "countrySubdivision": "SCT", "countrySubdivisionName": "Scotland", "postalCode": "G81", "extendedPostalCode": "G81 1JA", "countryCode": "GB", "country": "United Kingdom", "countryCodeISO3": "GBR", "freeformAddress": "610 Glasgow Road, Clydebank, G81 1JA", "localName": "Clydebank"}, "position": {"lat": 55.8908, "lon": -4.38617}, "viewport": {"topLeftPoint": {"lat": 55.8917, "lon": -4.38777}, "btmRightPoint": {"lat": 55.8899, "lon": -4.38457}}, "entryPoints": [{"type": "main", "position": {"lat": 55.8911, "lon": -4.38684}}]}, "g6JpZK84MjYwMDkwMDg5MTcyNDWhY6NHQlKhdqdVbmlmaWVk": {"type": "POI", "id": "g6JpZK84MjYwMDkwMDg5MTcyNDWhY6NHQlKhdqdVbmlmaWVk", "score": 2.1711592674, "dist": 77668.62527668715, "info": "search:ta:826009008917245-GB", "poi": {"name": "Autosales Of Kirriemuir", "phone": "+(44)-(1575)-574235", "brands": [{"name": "BP"}], "categorySet": [{"id": 7311}], "categories": ["petrol station"], "classifications": [{"code": "PETROL_STATION", "names": [{"nameLocale": "en-US", "name": "petrol station"}]}]}, "address": {"streetName": "Lindsay Street", "municipality": "Kirriemuir", "countrySecondarySubdivision": "Angus", "countrySubdivision": "SCT", "countrySubdivisionName": "Scotland", "postalCode": "DD8", "extendedPostalCode": "DD8 5AP", "countryCode": "GB", "country": "United Kingdom", "countryCodeISO3": "GBR", "freeformAddress": "Lindsay Street, Kirriemuir, DD8 5AP", "localName": "Kirriemuir"}, "position": {"lat": 56.67081, "lon": -3.0132}, "viewport": {"topLeftPoint": {"lat": 56.67171, "lon": -3.01484}, "btmRightPoint": {"lat": 56.66991, "lon": -3.01156}}, "entryPoints": [{"type": "main", "position": {"lat": 56.67098, "lon": -3.01292}}]}, "g6JpZK84MjYwMDkwMDk2MjA2ODChY6NHQlKhdqdVbmlmaWVk": {"type": "POI", "id": "g6JpZK84MjYwMDkwMDk2MjA2ODChY6NHQlKhdqdVbmlmaWVk", "score": 2.1710333824, "dist": 78411.88442237987, "info": "search:ta:826009009620680-GB", "poi": {"name": "Glasgow Airport Service Station", "phone": "+(44)-(141)-8873085", "brands": [{"name": "BP"}], "categorySet": [{"id": 7311}], "categories": ["petrol station"], "classifications": [{"code": "PETROL_STATION", "names": [{"nameLocale": "en-US", "name": "petrol station"}]}]}, "address": {"streetName": "White Cart Road", "municipalitySubdivision": "Abbotsinch", "municipality": "Paisley", "countrySecondarySubdivision": "Renfrewshire", "countrySubdivision": "SCT", "countrySubdivisionName": "Scotland", "postalCode": "PA3", "extendedPostalCode": "PA3 2TH", "countryCode": "GB", "country": "United Kingdom", "countryCodeISO3": "GBR", "freeformAddress": "White Cart Road, Paisley, PA3 2TH", "localName": "Paisley"}, "position": {"lat": 55.8624, "lon": -4.4272}, "viewport": {"topLeftPoint": {"lat": 55.8633, "lon": -4.4288}, "btmRightPoint": {"lat": 55.8615, "lon": -4.4256}}, "entryPoints": [{"type": "main", "position": {"lat": 55.86246, "lon": -4.42721}}]}, "g6JpZK84MjYwMDkwMDkyNDgwNjGhY6NHQlKhdqdVbmlmaWVk": {"type": "POI", "id": "g6JpZK84MjYwMDkwMDkyNDgwNjGhY6NHQlKhdqdVbmlmaWVk", "score": 2.1709561348, "dist": 78870.60640211003, "info": "search:ta:826009009248061-GB", "poi": {"name": "Greenock Road Service Station", "phone": "+(44)-(141)-8401787", "brands": [{"name": "BP"}], "categorySet": [{"id": 7311}], "categories": ["petrol station"], "classifications": [{"code": "PETROL_STATION", "names": [{"nameLocale": "en-US", "name": "petrol station"}]}]}, "address": {"streetNumber": "10", "streetName": "Greenock Road", "municipalitySubdivision": "Renfrew", "municipality": "Paisley", "countrySecondarySubdivision": "Renfrewshire", "countrySubdivision": "SCT", "countrySubdivisionName": "Scotland", "postalCode": "PA3", "extendedPostalCode": "PA3 2LA", "countryCode": "GB", "country": "United Kingdom", "countryCodeISO3": "GBR", "freeformAddress": "10 Greenock Road, Paisley, PA3 2LA", "localName": "Paisley"}, "position": {"lat": 55.8529, "lon": -4.43157}, "viewport": {"topLeftPoint": {"lat": 55.8538, "lon": -4.43317}, "btmRightPoint": {"lat": 55.852, "lon": -4.42997}}, "entryPoints": [{"type": "main", "position": {"lat": 55.85216, "lon": -4.43073}}]}, "g6JpZK84MjYwMDkwMTI1ODc1ODGhY6NHQlKhdqdVbmlmaWVk": {"type": "POI", "id": "g6JpZK84MjYwMDkwMTI1ODc1ODGhY6NHQlKhdqdVbmlmaWVk", "score": 2.1706299782, "dist": 80822.70501508063, "info": "search:ta:826009012587581-GB", "poi": {"name": "Ballinluig Services", "phone": "+(44)-(1796)-482212", "brands": [{"name": "BP"}], "categorySet": [{"id": 7311}], "categories": ["petrol station"], "classifications": [{"code": "PETROL_STATION", "names": [{"nameLocale": "en-US", "name": "petrol station"}]}]}, "address": {"municipalitySubdivision": "Ballinluig", "municipality": "Pitlochry", "countrySecondarySubdivision": "Perthshire", "countrySubdivision": "SCT", "countrySubdivisionName": "Scotland", "postalCode": "PH9", "extendedPostalCode": "PH9 0", "countryCode": "GB", "country": "United Kingdom", "countryCodeISO3": "GBR", "freeformAddress": "Pitlochry, PH9 0", "localName": "Pitlochry"}, "position": {"lat": 56.65441, "lon": -3.66997}, "viewport": {"topLeftPoint": {"lat": 56.65531, "lon": -3.67161}, "btmRightPoint": {"lat": 56.65351, "lon": -3.66833}}, "entryPoints": [{"type": "main", "position": {"lat": 56.65444, "lon": -3.66992}}]}, "g6JpZK84MjYwMDkwMDkwOTI5NDChY6NHQlKhdqdVbmlmaWVk": {"type": "POI", "id": "g6JpZK84MjYwMDkwMDkwOTI5NDChY6NHQlKhdqdVbmlmaWVk", "score": 2.1706154346, "dist": 80909.76214468836, "info": "search:ta:826009009092940-GB", "poi": {"name": "Paisley Mill Service Station", "phone": "+(44)-(141)-8421991", "brands": [{"name": "BP"}], "categorySet": [{"id": 7311}], "categories": ["petrol station"], "classifications": [{"code": "PETROL_STATION", "names": [{"nameLocale": "en-US", "name": "petrol station"}]}]}, "address": {"streetNumber": "125", "streetName": "Ferguslie", "municipality": "Paisley", "countrySecondarySubdivision": "Renfrewshire", "countrySubdivision": "SCT", "countrySubdivisionName": "Scotland", "postalCode": "PA1", "extendedPostalCode": "PA1 2TE", "countryCode": "GB", "country": "United Kingdom", "countryCodeISO3": "GBR", "freeformAddress": "125 Ferguslie, Paisley, PA1 2TE", "localName": "Paisley"}, "position": {"lat": 55.8399, "lon": -4.4603}, "viewport": {"topLeftPoint": {"lat": 55.8408, "lon": -4.4619}, "btmRightPoint": {"lat": 55.839, "lon": -4.4587}}, "entryPoints": [{"type": "main", "position": {"lat": 55.84, "lon": -4.4614}}]}, "g6JpZK84MjYwMDkwMDkxNjIxNjOhY6NHQlKhdqdVbmlmaWVk": {"type": "POI", "id": "g6JpZK84MjYwMDkwMDkxNjIxNjOhY6NHQlKhdqdVbmlmaWVk", "score": 2.1702899933, "dist": 82886.39064647463, "info": "search:ta:826009009162163-GB", "poi": {"name": "Milton Sf Connect", "phone": "+(44)-(1389)-726671", "brands": [{"name": "BP"}], "categorySet": [{"id": 7311}], "categories": ["petrol station"], "classifications": [{"code": "PETROL_STATION", "names": [{"nameLocale": "en-US", "name": "petrol station"}]}]}, "address": {"streetName": "Dumbarton Road", "municipalitySubdivision": "Milton", "municipality": "Dumbarton", "countrySecondarySubdivision": "Dunbartonshire", "countrySubdivision": "SCT", "countrySubdivisionName": "Scotland", "postalCode": "G82", "extendedPostalCode": "G82 2", "countryCode": "GB", "country": "United Kingdom", "countryCodeISO3": "GBR", "freeformAddress": "Dumbarton Road, Dumbarton, G82 2", "localName": "Dumbarton"}, "position": {"lat": 55.93566, "lon": -4.51533}, "viewport": {"topLeftPoint": {"lat": 55.93656, "lon": -4.51694}, "btmRightPoint": {"lat": 55.93476, "lon": -4.51372}}, "entryPoints": [{"type": "main", "position": {"lat": 55.93572, "lon": -4.51527}}]}, "g6JpZK84MjYwMDkwMDMyNzQyNjChY6NHQlKhdqdVbmlmaWVk": {"type": "POI", "id": "g6JpZK84MjYwMDkwMDMyNzQyNjChY6NHQlKhdqdVbmlmaWVk", "score": 2.1697494984, "dist": 86222.02789741823, "info": "search:ta:826009003274260-GB", "poi": {"name": "Lomond Service Station", "phone": "+(44)-(1389)-721537", "brands": [{"name": "BP"}], "categorySet": [{"id": 7311}], "categories": ["petrol station"], "classifications": [{"code": "PETROL_STATION", "names": [{"nameLocale": "en-US", "name": "petrol station"}]}]}, "address": {"streetNumber": "200", "streetName": "Main Street", "municipalitySubdivision": "Jamestown", "municipality": "Alexandria", "countrySecondarySubdivision": "Dunbartonshire", "countrySubdivision": "SCT", "countrySubdivisionName": "Scotland", "postalCode": "G83", "extendedPostalCode": "G83 8PN", "countryCode": "GB", "country": "United Kingdom", "countryCodeISO3": "GBR", "freeformAddress": "200 Main Street, Alexandria, G83 8PN", "localName": "Alexandria"}, "position": {"lat": 55.9991, "lon": -4.57183}, "viewport": {"topLeftPoint": {"lat": 56, "lon": -4.57344}, "btmRightPoint": {"lat": 55.9982, "lon": -4.57022}}, "entryPoints": [{"type": "main", "position": {"lat": 55.99906, "lon": -4.57135}}]}, "g6JpZK84MjYwMDkwMDkwOTEyMTmhY6NHQlKhdqdVbmlmaWVk": {"type": "POI", "id": "g6JpZK84MjYwMDkwMDkwOTEyMTmhY6NHQlKhdqdVbmlmaWVk", "score": 2.1697149277, "dist": 86437.40023673013, "info": "search:ta:826009009091219-GB", "poi": {"name": "Matrix Pitlochry", "phone": "+(44)-(1796)-473969", "brands": [{"name": "BP"}], "categorySet": [{"id": 7311}], "categories": ["petrol station"], "classifications": [{"code": "PETROL_STATION", "names": [{"nameLocale": "en-US", "name": "petrol station"}]}]}, "address": {"streetName": "Perth Road", "municipality": "Pitlochry", "countrySecondarySubdivision": "Perthshire", "countrySubdivision": "SCT", "countrySubdivisionName": "Scotland", "postalCode": "PH16", "extendedPostalCode": "PH16 5LY", "countryCode": "GB", "country": "United Kingdom", "countryCodeISO3": "GBR", "freeformAddress": "Perth Road, Pitlochry, PH16 5LY", "localName": "Pitlochry"}, "position": {"lat": 56.69743, "lon": -3.72128}, "viewport": {"topLeftPoint": {"lat": 56.69833, "lon": -3.72292}, "btmRightPoint": {"lat": 56.69653, "lon": -3.71964}}, "entryPoints": [{"type": "main", "position": {"lat": 56.69754, "lon": -3.72125}}]}, "g6JpZK84MjYwMDkwMDkyOTI4MDihY6NHQlKhdqdVbmlmaWVk": {"type": "POI", "id": "g6JpZK84MjYwMDkwMDkyOTI4MDihY6NHQlKhdqdVbmlmaWVk", "score": 2.1691718102, "dist": 89871.88920286178, "info": "search:ta:826009009292808-GB", "poi": {"name": "Western Service Station", "phone": "+(44)-(1563)-532778", "brands": [{"name": "BP"}], "categorySet": [{"id": 7311}], "categories": ["petrol station"], "classifications": [{"code": "PETROL_STATION", "names": [{"nameLocale": "en-US", "name": "petrol station"}]}]},